{"key":"Argentina","es":"Argentina","iso":"ar","iso2":"AR","center":[-38.4,-63.6],"zoom":4,"capital":"Buenos Aires","capital_real":"Buenos Aires","tiles":28,"tileNames":["Buenos Aires","Chos Malal","Concordia","Cordoba","Corrientes","Esquel","Fiambala","Formosa","Jaramillo","La Quiaca","Las Grutas","Mar del Plata","Mendoza","Posadas","Puerto Madryn","Rio Cuarto","Rio Gallegos","Rio Grande","Rosario","San Carlos de Bariloche","San Miguel de Tucuman","San Rafael","San Salvador de Jujuy","Tartagal","Termas de Rio Hondo","Tolar Grande","Villa Carlos Paz","Villa Union"],"region":"Americas","subregion":"South America","continent":"Américas","poblacion":45538401,"poblacion_fmt":"45.5M","pib_m":683098,"pib_m_fmt":"683,098","pib_pc":15000,"pib_pc_fmt":"15,000","deuda_pct":"84.65%","idh":"0.849","area_km2":2780400,"anio":"2025*","fuentes":["dossier_datosmacro","worldbank_pop_2024","worldbank_gdp_2023","apicountries"],"military":{"defense_pct_pib":2.3,"defense_m_usd":15882,"troops_est":245725,"power_index":6,"note":"Estimación educativa derivada de PIB/población/IDH — no es dato oficial"},"socio":{"life_expectancy":80,"literacy_pct":91,"gini_est":38,"co2_t_pc_est":27,"note":"Indicadores proxy educativos (no oficiales)"},"cities":[{"n":1,"name":"Buenos Aires","capital":true,"lat":-34.61315,"lon":-58.37723,"geoLabel":"Buenos Aires"},{"n":2,"name":"Chos Malal","lat":-37.37809,"lon":-70.27085,"geoLabel":"Chos Malal"},{"n":3,"name":"Concordia","lat":-31.39195,"lon":-58.01706,"geoLabel":"Concordia"},{"n":4,"name":"Cordoba","lat":-31.40648,"lon":-64.18853,"geoLabel":"Córdoba"},{"n":5,"name":"Corrientes","lat":-27.46784,"lon":-58.8344,"geoLabel":"Corrientes"},{"n":6,"name":"Esquel","lat":-42.91147,"lon":-71.31947,"geoLabel":"Esquel"},{"n":7,"name":"Fiambala","lat":-27.67225,"lon":-67.6187,"geoLabel":"Fiambalá"},{"n":8,"name":"Formosa","lat":-26.18489,"lon":-58.17313,"geoLabel":"Formosa"},{"n":9,"name":"Jaramillo","lat":-47.0167,"lon":-67.7167,"geoLabel":"Jaramillo"},{"n":10,"name":"La Quiaca","lat":-22.10448,"lon":-65.59646,"geoLabel":"La Quiaca"},{"n":11,"name":"Las Grutas","lat":-40.8047,"lon":-65.0875,"geoLabel":"Las Grutas"},{"n":12,"name":"Mar del Plata","lat":-38.00042,"lon":-57.5562,"geoLabel":"Mar del Plata"},{"n":13,"name":"Mendoza","lat":-32.88946,"lon":-68.84582,"geoLabel":"Mendoza"},{"n":14,"name":"Posadas","lat":-27.39184,"lon":-55.92379,"geoLabel":"Posadas"},{"n":15,"name":"Puerto Madryn","lat":-42.76848,"lon":-65.03827,"geoLabel":"Puerto Madryn"},{"n":16,"name":"Rio Cuarto","lat":-33.13044,"lon":-64.35272,"geoLabel":"Río Cuarto"},{"n":17,"name":"Rio Gallegos","lat":-51.6253,"lon":-69.25229,"geoLabel":"Río Gallegos"},{"n":18,"name":"Rio Grande","lat":-53.7877,"lon":-67.7095,"geoLabel":"Río Grande"},{"n":19,"name":"Rosario","lat":-32.94682,"lon":-60.63932,"geoLabel":"Rosario"},{"n":20,"name":"San Carlos de Bariloche","lat":-41.14557,"lon":-71.30822,"geoLabel":"Bariloche"},{"n":21,"name":"San Miguel de Tucuman","lat":-26.81601,"lon":-65.21051,"geoLabel":"San Miguel de Tucumán"},{"n":22,"name":"San Rafael","lat":-34.61531,"lon":-68.33238,"geoLabel":"San Rafael"},{"n":23,"name":"San Salvador de Jujuy","lat":-24.1928,"lon":-65.29342,"geoLabel":"San Salvador de Jujuy"},{"n":24,"name":"Tartagal","lat":-22.51682,"lon":-63.8056,"geoLabel":"Tartagal"},{"n":25,"name":"Termas de Rio Hondo","lat":-27.49362,"lon":-64.85972,"geoLabel":"Termas de Rio Hondo"},{"n":26,"name":"Tolar Grande","lat":-24.58933,"lon":-67.39615,"geoLabel":"Tolar Grande"},{"n":27,"name":"Villa Carlos Paz","lat":-31.4183,"lon":-64.49008,"geoLabel":"Villa Carlos Paz"},{"n":28,"name":"Villa Union","lat":-29.3156,"lon":-68.2269,"geoLabel":"Villa Unión"}],"regions":[{"name":"Buenos Aires","color":"#1565c0","type":"Federal District","geonunit":"Argentina"},{"name":"Catamarca","color":"#1e88e5","type":"Province","geonunit":"Argentina"},{"name":"Chaco","color":"#42a5f5","type":"Province","geonunit":"Argentina"},{"name":"Chubut","color":"#64b5f6","type":"Province","geonunit":"Argentina"},{"name":"Buenos Aires","color":"#90caf9","type":"Federal District","geonunit":"Argentina"},{"name":"Córdoba","color":"#0d47a1","type":"Province","geonunit":"Argentina"},{"name":"Corrientes","color":"#0277bd","type":"Province","geonunit":"Argentina"},{"name":"Entre Ríos","color":"#0288d1","type":"Province","geonunit":"Argentina"},{"name":"Formosa","color":"#039be5","type":"Province","geonunit":"Argentina"},{"name":"Jujuy","color":"#29b6f6","type":"Province","geonunit":"Argentina"},{"name":"La Pampa","color":"#4fc3f7","type":"Province","geonunit":"Argentina"},{"name":"La Rioja","color":"#80deea","type":"Province","geonunit":"Argentina"},{"name":"Mendoza","color":"#26c6da","type":"Province","geonunit":"Argentina"},{"name":"Misiones","color":"#00acc1","type":"Province","geonunit":"Argentina"},{"name":"Neuquén","color":"#00838f","type":"Province","geonunit":"Argentina"},{"name":"Río Negro","color":"#006064","type":"Province","geonunit":"Argentina"},{"name":"Salta","color":"#5c6bc0","type":"Province","geonunit":"Argentina"},{"name":"San Juan","color":"#7986cb","type":"Province","geonunit":"Argentina"},{"name":"San Luis","color":"#9fa8da","type":"Province","geonunit":"Argentina"},{"name":"Santa Cruz","color":"#c5cae9","type":"Province","geonunit":"Argentina"},{"name":"Santa Fe","color":"#3949ab","type":"Province","geonunit":"Argentina"},{"name":"Santiago del Estero","color":"#1a237e","type":"Province","geonunit":"Argentina"},{"name":"Tierra del Fuego","color":"#283593","type":"National Territory","geonunit":"Argentina"},{"name":"Tucumán","color":"#303f9f","type":"Province","geonunit":"Argentina"}],"hasBorder":true,"hasAdmin":true,"borderUrl":"assets/borders/ar.json","regionsUrl":"assets/admin1/ar.json","flagUrl":"https://flagcdn.com/w160/ar.png","flagUrl40":"https://flagcdn.com/w40/ar.png"}