{"key":"Austria","es":"Austria","iso":"at","iso2":"AT","center":[47.5,14.55],"zoom":7,"capital":"Vienna","capital_real":"Vienna","tiles":6,"tileNames":["Dornbirn","Graz","Innsbruck","Oberwart","Salzburg","Vienna"],"region":"Europe","subregion":"Central Europe","continent":"Europa","poblacion":9182000,"poblacion_fmt":"9.2M","pib_m":581182,"pib_m_fmt":"581,182","pib_pc":63296,"pib_pc_fmt":"63,296","deuda_pct":"81.50%","idh":"0.926","area_km2":83871,"anio":"2025*","fuentes":["dossier_datosmacro","worldbank_pop_2024","worldbank_gdp_2023","apicountries"],"military":{"defense_pct_pib":3.7,"defense_m_usd":21504,"troops_est":52374,"power_index":5.95,"note":"Estimación educativa derivada de PIB/población/IDH — no es dato oficial"},"socio":{"life_expectancy":82,"literacy_pct":96,"gini_est":36,"co2_t_pc_est":113.9,"note":"Indicadores proxy educativos (no oficiales)"},"cities":[{"n":1,"name":"Dornbirn","lat":47.41427,"lon":9.74195,"geoLabel":"Dornbirn"},{"n":2,"name":"Graz","lat":47.06733,"lon":15.44197,"geoLabel":"Graz"},{"n":3,"name":"Innsbruck","lat":47.26266,"lon":11.39454,"geoLabel":"Innsbruck"},{"n":4,"name":"Oberwart","lat":47.28971,"lon":16.20595,"geoLabel":"Oberwart"},{"n":5,"name":"Salzburg","lat":47.79941,"lon":13.04399,"geoLabel":"Salzburg"},{"n":6,"name":"Vienna","capital":true,"lat":48.20849,"lon":16.37208,"geoLabel":"Vienna"}],"regions":[{"name":"Burgenland","color":"#e57373","type":"State","geonunit":"Austria"},{"name":"Carintia","color":"#f06292","type":"State","geonunit":"Austria"},{"name":"Baja Austria","color":"#ba68c8","type":"State","geonunit":"Austria"},{"name":"Alta Austria","color":"#9575cd","type":"State","geonunit":"Austria"},{"name":"Salzburgo","color":"#7986cb","type":"State","geonunit":"Austria"},{"name":"Estiria","color":"#64b5f6","type":"State","geonunit":"Austria"},{"name":"Tirol","color":"#4fc3f7","type":"State","geonunit":"Austria"},{"name":"Vorarlberg","color":"#4dd0e1","type":"State","geonunit":"Austria"},{"name":"Viena","color":"#4db6ac","type":"State","geonunit":"Austria"}],"hasBorder":true,"hasAdmin":true,"borderUrl":"assets/borders/at.json","regionsUrl":"assets/admin1/at.json","flagUrl":"https://flagcdn.com/w160/at.png","flagUrl40":"https://flagcdn.com/w40/at.png"}