{"key":"Belarus","es":"Bielorrusia","iso":"by","iso2":"BY","center":[53.7,27.95],"zoom":6,"capital":"Minsk","capital_real":"Minsk","tiles":15,"tileNames":["Babruysk","Baranavichy","Braslaw","Brest","Gomel","Hrodna","Maladzyechna","Mazyr","Minsk","Mogilev","Naroulia","Navahrudak","Polatsk","Salihorsk","Vitebsk"],"region":"Europe","subregion":"Eastern Europe","continent":"Europa","poblacion":9133000,"poblacion_fmt":"9.1M","pib_m":78847,"pib_m_fmt":"78,847","pib_pc":8634,"pib_pc_fmt":"8,634","deuda_pct":"38.70%","idh":"0.801","area_km2":207600,"anio":"2025*","fuentes":["dossier_datosmacro","worldbank_pop_2024","worldbank_gdp_2023","apicountries"],"military":{"defense_pct_pib":1.8,"defense_m_usd":1457,"troops_est":47528,"power_index":5.37,"note":"Estimación educativa derivada de PIB/población/IDH — no es dato oficial"},"socio":{"life_expectancy":78,"literacy_pct":88,"gini_est":39,"co2_t_pc_est":15.5,"note":"Indicadores proxy educativos (no oficiales)"},"cities":[{"n":1,"name":"Babruysk","lat":53.14636,"lon":29.20552,"geoLabel":"Babruysk"},{"n":2,"name":"Baranavichy","lat":53.67,"lon":23.7323,"geoLabel":"Baranavichy"},{"n":3,"name":"Braslaw","lat":55.64387,"lon":27.05715,"geoLabel":"Braslaw"},{"n":4,"name":"Brest","lat":52.10894,"lon":23.71749,"geoLabel":"Brest"},{"n":5,"name":"Gomel","lat":52.4238936,"lon":31.0131698,"geoLabel":"Гомель"},{"n":6,"name":"Hrodna","lat":53.6758,"lon":23.82887,"geoLabel":"Hrodna"},{"n":7,"name":"Maladzyechna","lat":54.3167,"lon":26.854,"geoLabel":"Maladzyechna"},{"n":8,"name":"Mazyr","lat":52.04162,"lon":29.21631,"geoLabel":"Mazyr"},{"n":9,"name":"Minsk","capital":true,"lat":53.90019,"lon":27.56653,"geoLabel":"Minsk"},{"n":10,"name":"Mogilev","lat":53.90876,"lon":30.34044,"geoLabel":"Mogilev"},{"n":11,"name":"Naroulia","lat":51.7975734,"lon":29.5068919,"geoLabel":"Нароўля"},{"n":12,"name":"Navahrudak","lat":53.5942,"lon":25.8191,"geoLabel":"Navahrudak"},{"n":13,"name":"Polatsk","lat":55.4879,"lon":28.7856,"geoLabel":"Polatsk"},{"n":14,"name":"Salihorsk","lat":52.78981,"lon":27.53583,"geoLabel":"Salihorsk"},{"n":15,"name":"Vitebsk","lat":55.1904,"lon":30.2049,"geoLabel":"Vitebsk"}],"regions":[{"name":"Brest","color":"#e57373","type":"Region","geonunit":"Belarus"},{"name":"Minsk","color":"#f06292","type":"Region","geonunit":"Belarus"},{"name":"Gómel","color":"#ba68c8","type":"Region","geonunit":"Belarus"},{"name":"Grodno","color":"#9575cd","type":"Region","geonunit":"Belarus"},{"name":"Minsk","color":"#7986cb","type":"Municipality","geonunit":"Belarus"},{"name":"Maguilov","color":"#64b5f6","type":"Region","geonunit":"Belarus"},{"name":"Vítebsk","color":"#4fc3f7","type":"Region","geonunit":"Belarus"}],"hasBorder":true,"hasAdmin":true,"borderUrl":"assets/borders/by.json","regionsUrl":"assets/admin1/by.json","flagUrl":"https://flagcdn.com/w160/by.png","flagUrl40":"https://flagcdn.com/w40/by.png"}