{"key":"Bolivia","es":"Bolivia","iso":"bo","iso2":"BO","center":[-16.3,-63.6],"zoom":5,"capital":"La Paz","capital_real":"Sucre","tiles":8,"tileNames":["Cochabamba","La Paz","Riberalta","Robore","San Borja","San Ignacio de Velasco","Tarija","Trinidad"],"region":"Americas","subregion":"South America","continent":"Américas","poblacion":12582000,"poblacion_fmt":"12.6M","pib_m":55281,"pib_m_fmt":"55,281","pib_pc":4453,"pib_pc_fmt":"4,453","deuda_pct":"83.22%","idh":"0.698","area_km2":1098581,"anio":"2025*","fuentes":["dossier_datosmacro","worldbank_pop_2024","worldbank_gdp_2023","apicountries"],"military":{"defense_pct_pib":1.5,"defense_m_usd":848,"troops_est":60293,"power_index":5.12,"note":"Estimación educativa derivada de PIB/población/IDH — no es dato oficial"},"socio":{"life_expectancy":74,"literacy_pct":82,"gini_est":41,"co2_t_pc_est":8,"note":"Indicadores proxy educativos (no oficiales)"},"cities":[{"n":1,"name":"Cochabamba","lat":-17.38195,"lon":-66.15995,"geoLabel":"Cochabamba"},{"n":2,"name":"La Paz","capital":true,"lat":-16.4955455,"lon":-68.1336229,"geoLabel":"Municipio Nuestra Señora de La Paz"},{"n":3,"name":"Riberalta","lat":-11.01026,"lon":-66.05257,"geoLabel":"Riberalta"},{"n":4,"name":"Robore","lat":-18.33473,"lon":-59.76142,"geoLabel":"Roboré"},{"n":5,"name":"San Borja","lat":-14.85195,"lon":-66.74954,"geoLabel":"San Borja"},{"n":6,"name":"San Ignacio de Velasco","lat":-16.37767,"lon":-60.96472,"geoLabel":"San Ignacio de Velasco"},{"n":7,"name":"Tarija","lat":-21.53549,"lon":-64.72956,"geoLabel":"Tarija"},{"n":8,"name":"Trinidad","lat":-14.8349438,"lon":-64.9044936,"geoLabel":"Trinidad"}],"regions":[{"name":"Chuquisaca","color":"#e57373","type":"Department","geonunit":"Bolivia"},{"name":"Cochabamba","color":"#f06292","type":"Department","geonunit":"Bolivia"},{"name":"del Beni","color":"#ba68c8","type":"Department","geonunit":"Bolivia"},{"name":"La Paz","color":"#9575cd","type":"Department","geonunit":"Bolivia"},{"name":"Oruro","color":"#7986cb","type":"Department","geonunit":"Bolivia"},{"name":"Pando","color":"#64b5f6","type":"Department","geonunit":"Bolivia"},{"name":"Potosí","color":"#4fc3f7","type":"Department","geonunit":"Bolivia"},{"name":"Santa Cruz","color":"#4dd0e1","type":"Department","geonunit":"Bolivia"},{"name":"Tarija","color":"#4db6ac","type":"Department","geonunit":"Bolivia"}],"hasBorder":true,"hasAdmin":true,"borderUrl":"assets/borders/bo.json","regionsUrl":"assets/admin1/bo.json","flagUrl":"https://flagcdn.com/w160/bo.png","flagUrl40":"https://flagcdn.com/w40/bo.png"}