{"key":"CentralAfricanRepublic","es":"República Centroafricana","iso":"cf","iso2":"CF","center":[6.6,20.9],"zoom":5,"capital":"Bangui","capital_real":"Bangui","tiles":9,"tileNames":["Bangui","Berberati","Birao","Bria","Carnot","Gounda","Kabo","Obo","Pauoua"],"region":"Africa","subregion":"Middle Africa","continent":"África","poblacion":5331000,"poblacion_fmt":"5.3M","pib_m":2751,"pib_m_fmt":"2,751","pib_pc":516,"pib_pc_fmt":"516","deuda_pct":"59.88%","idh":"0.387","area_km2":622984,"anio":"2025*","fuentes":["dossier_datosmacro","worldbank_pop_2024","worldbank_gdp_2023","apicountries"],"military":{"defense_pct_pib":1.2,"defense_m_usd":34,"troops_est":18914,"power_index":3.97,"note":"Estimación educativa derivada de PIB/población/IDH — no es dato oficial"},"socio":{"life_expectancy":64,"literacy_pct":63,"gini_est":47,"co2_t_pc_est":0.9,"note":"Indicadores proxy educativos (no oficiales)"},"cities":[{"n":1,"name":"Bangui","capital":true,"lat":4.36122,"lon":18.55496,"geoLabel":"Bangui"},{"n":2,"name":"Berberati","lat":4.26116,"lon":15.79216,"geoLabel":"Berbérati"},{"n":3,"name":"Birao","lat":10.28488,"lon":22.78818,"geoLabel":"Birao"},{"n":4,"name":"Bria","lat":6.54233,"lon":21.98633,"geoLabel":"Bria"},{"n":5,"name":"Carnot","lat":4.94273,"lon":15.87735,"geoLabel":"Carnot"},{"n":6,"name":"Gounda","lat":9.0888,"lon":21.237,"geoLabel":"Gounda"},{"n":7,"name":"Kabo","lat":7.6920799,"lon":18.6243422,"geoLabel":"Kabo"},{"n":8,"name":"Obo","lat":5.3940869,"lon":26.4927242,"geoLabel":"Obo"},{"n":9,"name":"Pauoua","capital":null}],"regions":[{"name":"Bamingui-Bangoran","color":"#e57373","type":"Prefecture","geonunit":"Central African Republic"},{"name":"Bangui","color":"#f06292","type":"Autonomous Commune","geonunit":"Central African Republic"},{"name":"Basse-Kotto","color":"#ba68c8","type":"Prefecture","geonunit":"Central African Republic"},{"name":"Haut-Mbomou","color":"#9575cd","type":"Prefecture","geonunit":"Central African Republic"},{"name":"Haute-Kotto","color":"#7986cb","type":"Prefecture","geonunit":"Central African Republic"},{"name":"Kémo","color":"#64b5f6","type":"Prefecture","geonunit":"Central African Republic"},{"name":"Lobaye","color":"#4fc3f7","type":"Prefecture","geonunit":"Central African Republic"},{"name":"Mambéré-Kadéï","color":"#4dd0e1","type":"Prefecture","geonunit":"Central African Republic"},{"name":"Mbomou","color":"#4db6ac","type":"Prefecture","geonunit":"Central African Republic"},{"name":"Nana-Grébizi","color":"#81c784","type":"Economic Prefecture","geonunit":"Central African Republic"},{"name":"Nana-Mambéré","color":"#aed581","type":"Prefecture","geonunit":"Central African Republic"},{"name":"Ombella-M'Poko","color":"#dce775","type":"Prefecture","geonunit":"Central African Republic"},{"name":"Ouaka","color":"#fff176","type":"Prefecture","geonunit":"Central African Republic"},{"name":"Ouham","color":"#ffd54f","type":"Prefecture","geonunit":"Central African Republic"},{"name":"Ouham-Pendé","color":"#ffb74d","type":"Prefecture","geonunit":"Central African Republic"},{"name":"Sangha-Mbaéré","color":"#ff8a65","type":"Economic Prefecture","geonunit":"Central African Republic"},{"name":"Vakaga","color":"#a1887f","type":"Prefecture","geonunit":"Central African Republic"}],"hasBorder":true,"hasAdmin":true,"borderUrl":"assets/borders/cf.json","regionsUrl":"assets/admin1/cf.json","flagUrl":"https://flagcdn.com/w160/cf.png","flagUrl40":"https://flagcdn.com/w40/cf.png"}