{"key":"China","es":"China","iso":"cn","iso2":"CN","center":[35.9,104.2],"zoom":4,"capital":"Beijing","capital_real":"Beijing","tiles":131,"tileNames":["Aksu Prefecture","Altay Prefecture","Anshun","Baoshan","Baotou","Bayingolin Mongol Autonomous Prefecture","Beihai","Beijing","Binzhou","Bortala Mongol Autonomous Prefecture","Cangzhou","Chamdo","Changchun","Changde","Changshai","Chengdu","Chifeng","Chinese Desert","Chinese Desert 10","Chinese Desert 11","Chinese Desert 3","Chinese Desert 4","Chinese Desert 5","Chinese Desert 6","Chinese Desert 7","Chinese Desert 8","Chinese Desert 9","Chinese Mountains","Chizhou","Chongqing","Dalian","Dandong","Datong","Demjok","Fuzhou","Ganzhou","Gerze County","Golong Tibetan Autonomous Prefecture","Guangyuan","Guangzhou","Guigang","Guiyan","Guyuan","Haibei","Haikou","Hami","Hangzhou","Heihe","Hengyang","Hohhot","Hong Kong","Hotan Prefecture","Huaian","Hulunbuir","Huzhou","Jiangmen","Jilin city","Jinchang","Jingdezhen","Jining","Jinzhou","Karamay","Kashgar Prefecture","Kaying","Kizilsu Kyrgyz Autonomous Prefecture","Kunming","Lanzhou","Lhasa","Lincang","Longnan","Luannan County","Luiliang","Macao","Mori Kazakh Autonomous County","Nagqu","Nanchang","Nanjing","Nanning","Nantong","Ngari Prefecture","Ordos City","Pishan County","Plane.1034","Puer","Qingdao","Qinhuangdao","Qinzhou","Qitaihe","Sewuxiangwucun","Shanghai","Shantou","Shenzhen","Shigatse","Shijazhuang","Shiyan","Shuanghu County","Skardu","Subei Mongol Autonomous County","Tachen Prefecture","Tangshan","Tawang","Tewo County","Tianjin","Tonghua","Turpan","Urumqi","Weifang","Wenzhou","Wuhan","Xiangcheng","Xianghuang Banner","Xianyang","Xilingol League","Xingtai","Xining","Xinyang","Xuangcheng","Xuchang","Yaijang County","Yangjiang","Yichang","Yinchuan","Yiwu County","Yrad Middle Banner","Yulin","Yushu","Yuxi","Zhangjiakou","Zhanjiang","Zhidoi County","Zhongba County"],"region":"Asia","subregion":"Eastern Asia","continent":"Asia","poblacion":1408280000,"poblacion_fmt":"1.41B","pib_m":18743802,"pib_m_fmt":"18,743,802","pib_pc":13453,"pib_pc_fmt":"13,453","deuda_pct":"90.42%","idh":"0.788","area_km2":9640011,"anio":"2025*","fuentes":["dossier_datosmacro","worldbank_pop_2024","worldbank_gdp_2023","apicountries"],"military":{"defense_pct_pib":2.2,"defense_m_usd":414046,"troops_est":7255459,"power_index":6.85,"note":"Estimación educativa derivada de PIB/población/IDH — no es dato oficial"},"socio":{"life_expectancy":78,"literacy_pct":87,"gini_est":39,"co2_t_pc_est":24.2,"note":"Indicadores proxy educativos (no oficiales)"},"cities":[{"n":1,"name":"Aksu Prefecture","lat":41.1677575,"lon":80.2582136,"geoLabel":"阿克苏地区 ئاقسۇ ۋىلايىتى"},{"n":2,"name":"Altay Prefecture","lat":47.1001782,"lon":88.4341751,"geoLabel":"阿勒泰地区"},{"n":3,"name":"Anshun","lat":26.25,"lon":105.93333,"geoLabel":"Anshun"},{"n":4,"name":"Baoshan","lat":25.11626,"lon":99.16366,"geoLabel":"Baoshan"},{"n":5,"name":"Baotou","lat":40.6516,"lon":109.84389,"geoLabel":"Baotou"},{"n":6,"name":"Bayingolin Mongol Autonomous Prefecture","lat":39.495586,"lon":87.9790569,"geoLabel":"巴音郭楞蒙古自治州 بايىنغولىن موڭغۇل ئاپتونوم ئوبلاستى"},{"n":7,"name":"Beihai","lat":21.48349,"lon":109.11549,"geoLabel":"Beihai"},{"n":8,"name":"Beijing","capital":true,"lat":39.9075,"lon":116.39723,"geoLabel":"Beijing"},{"n":9,"name":"Binzhou","lat":37.36667,"lon":118.01667,"geoLabel":"Binzhou"},{"n":10,"name":"Bortala Mongol Autonomous Prefecture","lat":44.904806,"lon":82.0629703,"geoLabel":"博尔塔拉蒙古自治州 ᠪᠣᠷᠣᠲᠠᠯ᠎ᠠ ᠶᠢᠨ ᠮᠣᠩᠭᠣᠯ ᠥᠪᠡᠷᠲᠡᠭᠡᠨ ᠵᠠᠰᠠᠬᠤ ᠵᠧᠦ"},{"n":11,"name":"Cangzhou","lat":38.31124,"lon":116.85334,"geoLabel":"Cangzhou"},{"n":12,"name":"Chamdo","lat":31.1304,"lon":97.17982,"geoLabel":"Chamdo"},{"n":13,"name":"Changchun","lat":43.88,"lon":125.32278,"geoLabel":"Changchun"},{"n":14,"name":"Changde","lat":29.03205,"lon":111.69844,"geoLabel":"Changde"},{"n":15,"name":"Changshai","lat":28.19874,"lon":112.97087,"geoLabel":"Changsha"},{"n":16,"name":"Chengdu","lat":30.66667,"lon":104.06667,"geoLabel":"Chengdu"},{"n":17,"name":"Chifeng","lat":42.26833,"lon":118.96361,"geoLabel":"Chifeng"},{"n":18,"name":"Chinese Desert","capital":null},{"n":19,"name":"Chinese Desert 10","capital":null},{"n":20,"name":"Chinese Desert 11","capital":null},{"n":21,"name":"Chinese Desert 3","capital":null},{"n":22,"name":"Chinese Desert 4","capital":null},{"n":23,"name":"Chinese Desert 5","capital":null},{"n":24,"name":"Chinese Desert 6","capital":null},{"n":25,"name":"Chinese Desert 7","capital":null},{"n":26,"name":"Chinese Desert 8","capital":null},{"n":27,"name":"Chinese Desert 9","capital":null},{"n":28,"name":"Chinese Mountains","capital":null},{"n":29,"name":"Chizhou","lat":30.66134,"lon":117.47783,"geoLabel":"Chizhou"},{"n":30,"name":"Chongqing","lat":29.56026,"lon":106.55771,"geoLabel":"Chongqing"},{"n":31,"name":"Dalian","lat":38.91222,"lon":121.60222,"geoLabel":"Dalian"},{"n":32,"name":"Dandong","lat":40.12917,"lon":124.39472,"geoLabel":"Dandong"},{"n":33,"name":"Datong","lat":40.09361,"lon":113.29139,"geoLabel":"Datong"},{"n":34,"name":"Demjok","capital":null},{"n":35,"name":"Fuzhou","lat":26.06139,"lon":119.30611,"geoLabel":"Fuzhou"},{"n":36,"name":"Ganzhou","lat":25.84664,"lon":114.9326,"geoLabel":"Ganzhou"},{"n":37,"name":"Gerze County","lat":33.7648952,"lon":84.1227717,"geoLabel":"改则县 སྒེར་རྩེ་རྫོང་།"},{"n":38,"name":"Golong Tibetan Autonomous Prefecture","capital":null},{"n":39,"name":"Guangyuan","lat":32.44201,"lon":105.823,"geoLabel":"Guangyuan"},{"n":40,"name":"Guangzhou","lat":23.11667,"lon":113.25,"geoLabel":"Guangzhou"},{"n":41,"name":"Guigang","lat":23.11603,"lon":109.59472,"geoLabel":"Guigang"},{"n":42,"name":"Guiyan","lat":26.58333,"lon":106.71667,"geoLabel":"Guiyang"},{"n":43,"name":"Guyuan","lat":36.00667,"lon":106.28083,"geoLabel":"Guyuan"},{"n":44,"name":"Haibei","lat":47.65959,"lon":126.84,"geoLabel":"Haibei"},{"n":45,"name":"Haikou","lat":20.03421,"lon":110.34651,"geoLabel":"Haikou"},{"n":46,"name":"Hami","lat":42.83393,"lon":93.50601,"geoLabel":"Hami"},{"n":47,"name":"Hangzhou","lat":30.29365,"lon":120.16142,"geoLabel":"Hangzhou"},{"n":48,"name":"Heihe","lat":50.24413,"lon":127.49016,"geoLabel":"Heihe"},{"n":49,"name":"Hengyang","lat":26.88946,"lon":112.61888,"geoLabel":"Hengyang"},{"n":50,"name":"Hohhot","lat":40.81056,"lon":111.65222,"geoLabel":"Hohhot"},{"n":51,"name":"Hong Kong","lat":22.27832,"lon":114.17469,"geoLabel":"Hong Kong"},{"n":52,"name":"Hotan Prefecture","lat":37.1144827,"lon":79.9200157,"geoLabel":"和田地区 خوتەن ۋىلايىتى"},{"n":53,"name":"Huaian","lat":33.5978157,"lon":119.0196971,"geoLabel":"淮安市"},{"n":54,"name":"Hulunbuir","lat":49.21141,"lon":119.75582,"geoLabel":"Hulunbuir"},{"n":55,"name":"Huzhou","lat":30.8703,"lon":120.0933,"geoLabel":"Huzhou"},{"n":56,"name":"Jiangmen","lat":22.58333,"lon":113.08333,"geoLabel":"Jiangmen"},{"n":57,"name":"Jilin city","lat":43.8349669,"lon":126.5438702,"geoLabel":"吉林市"},{"n":58,"name":"Jinchang","lat":38.50062,"lon":102.19379,"geoLabel":"Jinchang"},{"n":59,"name":"Jingdezhen","lat":29.2947,"lon":117.20789,"geoLabel":"Jingdezhen"},{"n":60,"name":"Jining","lat":35.405,"lon":116.58139,"geoLabel":"Jining"},{"n":61,"name":"Jinzhou","lat":41.10778,"lon":121.14167,"geoLabel":"Jinzhou"},{"n":62,"name":"Karamay","lat":45.58473,"lon":84.88724,"geoLabel":"Karamay"},{"n":63,"name":"Kashgar Prefecture","lat":37.8714865,"lon":77.1915562,"geoLabel":"喀什地区 قەشقەر ۋىلايىتى"},{"n":64,"name":"Kaying","lat":28.41156,"lon":94.68052,"geoLabel":"Kāying"},{"n":65,"name":"Kizilsu Kyrgyz Autonomous Prefecture","lat":39.7178689,"lon":75.2550052,"geoLabel":"中国农业银行"},{"n":66,"name":"Kunming","lat":25.03889,"lon":102.71833,"geoLabel":"Kunming"},{"n":67,"name":"Lanzhou","lat":36.05701,"lon":103.83987,"geoLabel":"Lanzhou"},{"n":68,"name":"Lhasa","lat":29.65,"lon":91.1,"geoLabel":"Lhasa"},{"n":69,"name":"Lincang","lat":23.87972,"lon":100.09455,"geoLabel":"Lincang"},{"n":70,"name":"Longnan","lat":33.39791,"lon":104.91703,"geoLabel":"Longnan"},{"n":71,"name":"Luannan County","lat":39.4552585,"lon":118.6042925,"geoLabel":"滦南县"},{"n":72,"name":"Luiliang","capital":null},{"n":73,"name":"Macao","lat":22.20056,"lon":113.54611,"geoLabel":"Macao"},{"n":74,"name":"Mori Kazakh Autonomous County","lat":43.9852673,"lon":90.7796352,"geoLabel":"木垒哈萨克自治县 موري قازاق اۆتونوميالى اۋدانى"},{"n":75,"name":"Nagqu","lat":31.47678,"lon":92.05729,"geoLabel":"Nagqu"},{"n":76,"name":"Nanchang","lat":28.68396,"lon":115.85306,"geoLabel":"Nanchang"},{"n":77,"name":"Nanjing","lat":32.06167,"lon":118.77778,"geoLabel":"Nanjing"},{"n":78,"name":"Nanning","lat":22.81667,"lon":108.31667,"geoLabel":"Nanning"},{"n":79,"name":"Nantong","lat":32.03028,"lon":120.87472,"geoLabel":"Nantong"},{"n":80,"name":"Ngari Prefecture","lat":33.1046322,"lon":82.5656969,"geoLabel":"阿里地区 མངའ་རིས་ས་ཁུལ་"},{"n":81,"name":"Ordos City","lat":39.4602947,"lon":108.8134284,"geoLabel":"鄂尔多斯市"},{"n":82,"name":"Pishan County","lat":37.2435049,"lon":78.5941767,"geoLabel":"皮山县 گۇما ناھىيىسى"},{"n":83,"name":"Plane.1034","capital":null},{"n":84,"name":"Puer","lat":23.2948942,"lon":100.8784458,"geoLabel":"普洱市"},{"n":85,"name":"Qingdao","lat":36.06488,"lon":120.38042,"geoLabel":"Qingdao"},{"n":86,"name":"Qinhuangdao","lat":39.94104,"lon":119.58936,"geoLabel":"Qinhuangdao"},{"n":87,"name":"Qinzhou","lat":21.98247,"lon":108.65061,"geoLabel":"Qinzhou"},{"n":88,"name":"Qitaihe","lat":45.768,"lon":130.9953,"geoLabel":"Qitaihe"},{"n":89,"name":"Sewuxiangwucun","capital":null},{"n":90,"name":"Shanghai","lat":31.22222,"lon":121.45806,"geoLabel":"Shanghai"},{"n":91,"name":"Shantou","lat":23.35489,"lon":116.67876,"geoLabel":"Shantou"},{"n":92,"name":"Shenzhen","lat":22.54554,"lon":114.0683,"geoLabel":"Shenzhen"},{"n":93,"name":"Shigatse","lat":29.3519,"lon":89.31,"geoLabel":"Shigatse Peace Airport"},{"n":94,"name":"Shijazhuang","capital":null},{"n":95,"name":"Shiyan","lat":32.6475,"lon":110.77806,"geoLabel":"Shiyan"},{"n":96,"name":"Shuanghu County","lat":34.040205,"lon":88.2537964,"geoLabel":"双湖县 མཚོ་གཉིས་རྫོང།"},{"n":97,"name":"Skardu","lat":35.29787,"lon":75.63372,"geoLabel":"Skardu"},{"n":98,"name":"Subei Mongol Autonomous County","lat":39.7281239,"lon":96.455217,"geoLabel":"肃北蒙古族自治县 ᠰᠦᠪᠧᠢ ᠶᠢᠨ ᠮᠣᠩᠭᠣᠯ ᠦᠨᠳᠦᠰᠦᠲᠡᠨ ᠦ ᠥᠪᠡᠷᠲᠡᠭᠡᠨ ᠵᠠᠰᠠᠬᠤ ᠰᠢᠶᠠᠨ"},{"n":99,"name":"Tachen Prefecture","lat":31.7473339,"lon":92.7459307,"geoLabel":"达前乡"},{"n":100,"name":"Tangshan","lat":39.64381,"lon":118.18319,"geoLabel":"Tangshan"},{"n":101,"name":"Tawang","capital":null},{"n":102,"name":"Tewo County","lat":33.9837983,"lon":103.5729227,"geoLabel":"迭部县 ཐེ་བོ་རྫོང་།"},{"n":103,"name":"Tianjin","lat":39.14222,"lon":117.17667,"geoLabel":"Tianjin"},{"n":104,"name":"Tonghua","lat":41.71972,"lon":125.92639,"geoLabel":"Tonghua"},{"n":105,"name":"Turpan","lat":42.94769,"lon":89.17886,"geoLabel":"Turpan"},{"n":106,"name":"Urumqi","lat":43.80096,"lon":87.60046,"geoLabel":"Ürümqi"},{"n":107,"name":"Weifang","lat":36.71,"lon":119.10194,"geoLabel":"Weifang"},{"n":108,"name":"Wenzhou","lat":27.99942,"lon":120.66682,"geoLabel":"Wenzhou"},{"n":109,"name":"Wuhan","lat":30.58333,"lon":114.26667,"geoLabel":"Wuhan"},{"n":110,"name":"Xiangcheng","lat":25.46687,"lon":100.56248,"geoLabel":"Xiangcheng"},{"n":111,"name":"Xianghuang Banner","lat":42.3407155,"lon":114.1025537,"geoLabel":"镶黄旗 ᠬᠥᠪᠡᠭᠡᠲᠦ ᠰᠢᠷ᠎ᠠ ᠬᠣᠰᠢᠭᠤ"},{"n":112,"name":"Xianyang","lat":34.33778,"lon":108.70261,"geoLabel":"Xianyang"},{"n":113,"name":"Xilingol League","lat":43.9304371,"lon":116.0415202,"geoLabel":"锡林郭勒盟 ᠰᠢᠯᠢ ᠶᠢᠨ ᠭᠣᠣᠯ ᠠᠶᠢᠮᠠᠭ"},{"n":114,"name":"Xingtai","lat":37.06217,"lon":114.49272,"geoLabel":"Xingtai"},{"n":115,"name":"Xining","lat":36.62554,"lon":101.75739,"geoLabel":"Xining"},{"n":116,"name":"Xinyang","lat":32.12278,"lon":114.06556,"geoLabel":"Xinyang"},{"n":117,"name":"Xuangcheng","capital":null},{"n":118,"name":"Xuchang","lat":34.03189,"lon":113.86299,"geoLabel":"Xuchang"},{"n":119,"name":"Yaijang County","capital":null},{"n":120,"name":"Yangjiang","lat":21.85563,"lon":111.96272,"geoLabel":"Yangjiang"},{"n":121,"name":"Yichang","lat":30.71444,"lon":111.28472,"geoLabel":"Yichang"},{"n":122,"name":"Yinchuan","lat":38.46806,"lon":106.27306,"geoLabel":"Yinchuan"},{"n":123,"name":"Yiwu County","lat":43.6273426,"lon":94.8774974,"geoLabel":"伊吾县 ئارا تۈرۈك ناھىيىسى"},{"n":124,"name":"Yrad Middle Banner","capital":null},{"n":125,"name":"Yulin","lat":22.6305,"lon":110.14686,"geoLabel":"Yulin"},{"n":126,"name":"Yushu","lat":33.00118,"lon":97.00893,"geoLabel":"Yushu"},{"n":127,"name":"Yuxi","lat":24.355,"lon":102.54222,"geoLabel":"Yuxi"},{"n":128,"name":"Zhangjiakou","lat":40.78341,"lon":114.87139,"geoLabel":"Zhangjiakou"},{"n":129,"name":"Zhanjiang","lat":21.23391,"lon":110.38749,"geoLabel":"Zhanjiang"},{"n":130,"name":"Zhidoi County","lat":34.642159,"lon":92.8220032,"geoLabel":"治多县"},{"n":131,"name":"Zhongba County","lat":30.5480745,"lon":83.7103217,"geoLabel":"仲巴县 འབྲོང་པ་རྫོང།"}],"regions":[{"name":"Anhui","color":"#b71c1c","type":"Province","geonunit":"China"},{"name":"Pekín","color":"#c62828","type":"Municipality","geonunit":"China"},{"name":"Chongqing","color":"#d32f2f","type":"Municipality","geonunit":"China"},{"name":"Fujian","color":"#e53935","type":"Province","geonunit":"China"},{"name":"Gansu","color":"#f44336","type":"Province","geonunit":"China"},{"name":"Guangdong","color":"#ef5350","type":"Province","geonunit":"China"},{"name":"Guangxi","color":"#e57373","type":"Autonomous Region","geonunit":"China"},{"name":"Guizhou","color":"#ef9a9a","type":"Province","geonunit":"China"},{"name":"Hainan","color":"#ffcdd2","type":"Province","geonunit":"China"},{"name":"Hebei","color":"#d84315","type":"Province","geonunit":"China"},{"name":"Heilongjiang","color":"#e64a19","type":"Province","geonunit":"China"},{"name":"Henan","color":"#f4511e","type":"Province","geonunit":"China"},{"name":"Hubei","color":"#ff5722","type":"Province","geonunit":"China"},{"name":"Hunan","color":"#ff7043","type":"Province","geonunit":"China"},{"name":"Mongolia Interior","color":"#ff8a65","type":"Autonomous Region","geonunit":"China"},{"name":"Jiangsu","color":"#ffab91","type":"Province","geonunit":"China"},{"name":"Jiangxi","color":"#bf360c","type":"Province","geonunit":"China"},{"name":"Jilin","color":"#e65100","type":"Province","geonunit":"China"},{"name":"Liaoning","color":"#f57c00","type":"Province","geonunit":"China"},{"name":"Ningxia","color":"#fb8c00","type":"Autonomous Region","geonunit":"China"},{"name":"Islas Paracelso","color":"#ff9800","type":"","geonunit":"Paracel Islands"},{"name":"Qinghai","color":"#ffa726","type":"Province","geonunit":"China"},{"name":"Shaanxi","color":"#ffb74d","type":"Province","geonunit":"China"},{"name":"Shandong","color":"#ffcc80","type":"Province","geonunit":"China"},{"name":"Shanghái","color":"#f9a825","type":"Municipality","geonunit":"China"},{"name":"Shanxi","color":"#fbc02d","type":"Province","geonunit":"China"},{"name":"Sichuan","color":"#fdd835","type":"Province","geonunit":"China"},{"name":"Tianjin","color":"#ffee58","type":"Municipality","geonunit":"China"},{"name":"Sinkiang","color":"#6d4c41","type":"Autonomous Region","geonunit":"China"},{"name":"Tíbet","color":"#5d4037","type":"Autonomous Region","geonunit":"China"},{"name":"Yunnan","color":"#4e342e","type":"Province","geonunit":"China"},{"name":"Zhejiang","color":"#3e2723","type":"Province","geonunit":"China"}],"hasBorder":true,"hasAdmin":true,"borderUrl":"assets/borders/cn.json","regionsUrl":"assets/admin1/cn.json","flagUrl":"https://flagcdn.com/w160/cn.png","flagUrl40":"https://flagcdn.com/w40/cn.png"}