{"key":"CzechRepublic","es":"República Checa","iso":"cz","iso2":"CZ","center":[49.8,15.5],"zoom":7,"capital":"Prague","capital_real":"Prague","tiles":11,"tileNames":["Ceske Budejovice","Cesky Krumlov","Jihlava","Karlovy Vary","Olomuc","Ostrava","Paradubice","Pizen","Prague","Utsi nad Labem","Znojmo"],"region":"Europe","subregion":"Central Europe","continent":"Europa","poblacion":10915839,"poblacion_fmt":"10.9M","pib_m":391027,"pib_m_fmt":"391,027","pib_pc":35861,"pib_pc_fmt":"35,861","deuda_pct":"44.30%","idh":"0.895","area_km2":78865,"anio":"2025*","fuentes":["dossier_datosmacro","worldbank_pop_2024","worldbank_gdp_2023","apicountries"],"military":{"defense_pct_pib":3.7,"defense_m_usd":14468,"troops_est":60910,"power_index":5.85,"note":"Estimación educativa derivada de PIB/población/IDH — no es dato oficial"},"socio":{"life_expectancy":81,"literacy_pct":94,"gini_est":37,"co2_t_pc_est":64.5,"note":"Indicadores proxy educativos (no oficiales)"},"cities":[{"n":1,"name":"Ceske Budejovice","lat":48.97447,"lon":14.47434,"geoLabel":"České Budějovice"},{"n":2,"name":"Cesky Krumlov","lat":48.81091,"lon":14.31521,"geoLabel":"Český Krumlov"},{"n":3,"name":"Jihlava","lat":49.3961,"lon":15.59124,"geoLabel":"Jihlava"},{"n":4,"name":"Karlovy Vary","lat":50.23271,"lon":12.87117,"geoLabel":"Karlovy Vary"},{"n":5,"name":"Olomuc","lat":49.59552,"lon":17.25175,"geoLabel":"Olomouc"},{"n":6,"name":"Ostrava","lat":49.83465,"lon":18.28204,"geoLabel":"Ostrava"},{"n":7,"name":"Paradubice","lat":50.04075,"lon":15.77659,"geoLabel":"Pardubice"},{"n":8,"name":"Pizen","lat":49.67517,"lon":13.27462,"geoLabel":"Plzen"},{"n":9,"name":"Prague","capital":true,"lat":50.08804,"lon":14.42076,"geoLabel":"Prague"},{"n":10,"name":"Utsi nad Labem","lat":50.6607,"lon":14.03227,"geoLabel":"Ústí nad Labem"},{"n":11,"name":"Znojmo","lat":48.8555,"lon":16.0488,"geoLabel":"Znojmo"}],"regions":[{"name":"Bohemia Meridional","color":"#e57373","type":"Region","geonunit":"Czech Republic"},{"name":"Moravia Meridional","color":"#f06292","type":"Region","geonunit":"Czech Republic"},{"name":"Karlovy Vary","color":"#ba68c8","type":"Region","geonunit":"Czech Republic"},{"name":"Hradec Králové","color":"#9575cd","type":"Region","geonunit":"Czech Republic"},{"name":"Liberec","color":"#7986cb","type":"Region","geonunit":"Czech Republic"},{"name":"Moravia-Silesia","color":"#64b5f6","type":"Region","geonunit":"Czech Republic"},{"name":"Olomouc","color":"#4fc3f7","type":"Region","geonunit":"Czech Republic"},{"name":"Pardubice","color":"#4dd0e1","type":"Region","geonunit":"Czech Republic"},{"name":"Pilsen","color":"#4db6ac","type":"Region","geonunit":"Czech Republic"},{"name":"Praga","color":"#81c784","type":"Region","geonunit":"Czech Republic"},{"name":"Bohemia Central","color":"#aed581","type":"Region","geonunit":"Czech Republic"},{"name":"Ústí nad Labem","color":"#dce775","type":"Region","geonunit":"Czech Republic"},{"name":"Vysočina","color":"#fff176","type":"Region","geonunit":"Czech Republic"},{"name":"Zlín","color":"#ffd54f","type":"Region","geonunit":"Czech Republic"}],"hasBorder":true,"hasAdmin":true,"borderUrl":"assets/borders/cz.json","regionsUrl":"assets/admin1/cz.json","flagUrl":"https://flagcdn.com/w160/cz.png","flagUrl40":"https://flagcdn.com/w40/cz.png"}