{"key":"Ghana","es":"Ghana","iso":"gh","iso2":"GH","center":[7.9,-1],"zoom":6,"capital":"Accra","capital_real":"Accra","tiles":6,"tileNames":["Accra","Bolgatanga","Kumasi","Sunyani","Tamale","Wa"],"region":"Africa","subregion":"Western Africa","continent":"África","poblacion":33788000,"poblacion_fmt":"33.8M","pib_m":83289,"pib_m_fmt":"83,289","pib_pc":2419,"pib_pc_fmt":"2,419","deuda_pct":"70.34%","idh":"0.602","area_km2":238533,"anio":"2025*","fuentes":["dossier_datosmacro","worldbank_pop_2024","worldbank_gdp_2023","apicountries"],"military":{"defense_pct_pib":1.4,"defense_m_usd":1151,"troops_est":148938,"power_index":5.1,"note":"Estimación educativa derivada de PIB/población/IDH — no es dato oficial"},"socio":{"life_expectancy":71,"literacy_pct":76,"gini_est":43,"co2_t_pc_est":4.4,"note":"Indicadores proxy educativos (no oficiales)"},"cities":[{"n":1,"name":"Accra","capital":true,"lat":5.55602,"lon":-0.1969,"geoLabel":"Accra"},{"n":2,"name":"Bolgatanga","lat":10.78556,"lon":-0.85139,"geoLabel":"Bolgatanga"},{"n":3,"name":"Kumasi","lat":6.68848,"lon":-1.62443,"geoLabel":"Kumasi"},{"n":4,"name":"Sunyani","lat":7.33991,"lon":-2.32676,"geoLabel":"Sunyani"},{"n":5,"name":"Tamale","lat":9.40079,"lon":-0.8393,"geoLabel":"Tamale"},{"n":6,"name":"Wa","lat":10.06069,"lon":-2.50192,"geoLabel":"Wa"}],"regions":[{"name":"Ashanti","color":"#e57373","type":"Region","geonunit":"Ghana"},{"name":"Brong-Ahafo","color":"#f06292","type":"Region","geonunit":"Ghana"},{"name":"Central","color":"#ba68c8","type":"Region","geonunit":"Ghana"},{"name":"Oriental","color":"#9575cd","type":"Region","geonunit":"Ghana"},{"name":"Gran Acra","color":"#7986cb","type":"Region","geonunit":"Ghana"},{"name":"Norte","color":"#64b5f6","type":"Region","geonunit":"Ghana"},{"name":"Alta Oriental","color":"#4fc3f7","type":"Region","geonunit":"Ghana"},{"name":"Alta Occidental","color":"#4dd0e1","type":"Region","geonunit":"Ghana"},{"name":"Volta","color":"#4db6ac","type":"Region","geonunit":"Ghana"},{"name":"Occidental","color":"#81c784","type":"Region","geonunit":"Ghana"}],"hasBorder":true,"hasAdmin":true,"borderUrl":"assets/borders/gh.json","regionsUrl":"assets/admin1/gh.json","flagUrl":"https://flagcdn.com/w160/gh.png","flagUrl40":"https://flagcdn.com/w40/gh.png"}