{"key":"Libya","es":"Libia","iso":"ly","iso2":"LY","center":[26.3,17.2],"zoom":5,"capital":"Tripoli","capital_real":"Tripoli","tiles":15,"tileNames":["Al Bayda","Al Jawf","Al Wigh","An Nawfaliyah","Bani Waled","Benghazi","Harat Zuwayyah","Mechilli","Misrata","Sabha","Sirte","Subratah","Tajarhi","Tmisan","Tripoli"],"region":"Africa","subregion":"Northern Africa","continent":"África","poblacion":7381000,"poblacion_fmt":"7.4M","pib_m":48487,"pib_m_fmt":"48,487","pib_pc":6569,"pib_pc_fmt":"6,569","deuda_pct":"36.39%","idh":"0.746","area_km2":1759540,"anio":"2025*","fuentes":["dossier_datosmacro","worldbank_pop_2024","worldbank_gdp_2023","apicountries"],"military":{"defense_pct_pib":1.7,"defense_m_usd":821,"troops_est":36787,"power_index":5.17,"note":"Estimación educativa derivada de PIB/población/IDH — no es dato oficial"},"socio":{"life_expectancy":76,"literacy_pct":85,"gini_est":40,"co2_t_pc_est":11.8,"note":"Indicadores proxy educativos (no oficiales)"},"cities":[{"n":1,"name":"Al Bayda","lat":32.7609529,"lon":21.7577175,"geoLabel":"ⵍⴱⵉⴹⴰ البيضاء Bayda"},{"n":2,"name":"Al Jawf","lat":24.1989,"lon":23.29093,"geoLabel":"Al Jawf"},{"n":3,"name":"Al Wigh","lat":24.19074,"lon":14.54859,"geoLabel":"Al Wīgh"},{"n":4,"name":"An Nawfaliyah","lat":30.77784,"lon":17.83544,"geoLabel":"An Nawfalīyah"},{"n":5,"name":"Bani Waled","capital":null},{"n":6,"name":"Benghazi","lat":32.11486,"lon":20.06859,"geoLabel":"Benghazi"},{"n":7,"name":"Harat Zuwayyah","capital":null},{"n":8,"name":"Mechilli","capital":null},{"n":9,"name":"Misrata","lat":32.37535,"lon":15.09254,"geoLabel":"Misratah"},{"n":10,"name":"Sabha","lat":27.03766,"lon":14.42832,"geoLabel":"Sabha"},{"n":11,"name":"Sirte","lat":31.20892,"lon":16.58866,"geoLabel":"Sirte"},{"n":12,"name":"Subratah","capital":null},{"n":13,"name":"Tajarhi","lat":24.37,"lon":14.47083,"geoLabel":"Tajarhī"},{"n":14,"name":"Tmisan","lat":27.48855,"lon":13.12571,"geoLabel":"Tmīsān"},{"n":15,"name":"Tripoli","capital":true,"lat":32.88743,"lon":13.18733,"geoLabel":"Tripoli"}],"regions":[{"name":"del Ajdabiya","color":"#e57373","type":"Municipality|Governarate","geonunit":"Libya"},{"name":"Al Butnan","color":"#f06292","type":"Municipality|Governarate","geonunit":"Libya"},{"name":"Al Jabal al Akhdar","color":"#ba68c8","type":"Municipality|Governarate","geonunit":"Libya"},{"name":"Al Jfara","color":"#9575cd","type":"Municipality|Governarate","geonunit":"Libya"},{"name":"Al Jufrah","color":"#7986cb","type":"Municipality|Governarate","geonunit":"Libya"},{"name":"Al Kufrah","color":"#64b5f6","type":"Municipality|Governarate","geonunit":"Libya"},{"name":"Al Marj","color":"#4fc3f7","type":"Municipality|Governarate","geonunit":"Libya"},{"name":"Al Murgub","color":"#4dd0e1","type":"Municipality|Governarate","geonunit":"Libya"},{"name":"Al Quba","color":"#4db6ac","type":"Municipality|Governarate","geonunit":"Libya"},{"name":"An Nuqat al Khams","color":"#81c784","type":"Municipality|Governarate","geonunit":"Libya"},{"name":"Ash Shati","color":"#aed581","type":"Municipality|Governarate","geonunit":"Libya"},{"name":"Zauiya","color":"#dce775","type":"Municipality|Governarate","geonunit":"Libya"},{"name":"Bengasi","color":"#fff176","type":"Municipality|Governarate","geonunit":"Libya"},{"name":"Ghadamis","color":"#ffd54f","type":"Municipality|Governarate","geonunit":"Libya"},{"name":"Ghat","color":"#ffb74d","type":"Municipality|Governarate","geonunit":"Libya"},{"name":"Misurata","color":"#ff8a65","type":"Municipality|Governarate","geonunit":"Libya"},{"name":"Mizdah","color":"#a1887f","type":"Municipality|Governarate","geonunit":"Libya"},{"name":"Murzuk","color":"#90a4ae","type":"Municipality|Governarate","geonunit":"Libya"},{"name":"Sabha","color":"#f48fb1","type":"Municipality|Governarate","geonunit":"Libya"},{"name":"Sirte","color":"#ce93d8","type":"Municipality|Governarate","geonunit":"Libya"},{"name":"Tajura' wa an Nawahi al Arba","color":"#b39ddb","type":"Municipality|Governarate","geonunit":"Libya"},{"name":"Wadi Al Hayaa","color":"#9fa8da","type":"Municipality|Governarate","geonunit":"Libya"}],"hasBorder":true,"hasAdmin":true,"borderUrl":"assets/borders/ly.json","regionsUrl":"assets/admin1/ly.json","flagUrl":"https://flagcdn.com/w160/ly.png","flagUrl40":"https://flagcdn.com/w40/ly.png"}