{"key":"Mongolia","es":"Mongolia","iso":"mn","iso2":"MN","center":[46.9,103.8],"zoom":5,"capital":"Ulaanbaatar","capital_real":"Ulan Bator","tiles":10,"tileNames":["Altai Sum","Enkh tolgoi","Khatgal","Khorgo","Khukh-Uzuur","Matad","Sainshand","Tugul","Ulaanbaatar","Ulaangom"],"region":"Asia","subregion":"Eastern Asia","continent":"Asia","poblacion":3545000,"poblacion_fmt":"3.5M","pib_m":23795,"pib_m_fmt":"23,795","pib_pc":6712,"pib_pc_fmt":"6,712","deuda_pct":"44.09%","idh":"0.741","area_km2":1564110,"anio":"2025*","fuentes":["dossier_datosmacro","worldbank_pop_2024","worldbank_gdp_2023","apicountries"],"military":{"defense_pct_pib":1.7,"defense_m_usd":405,"troops_est":17597,"power_index":4.96,"note":"Estimación educativa derivada de PIB/población/IDH — no es dato oficial"},"socio":{"life_expectancy":76,"literacy_pct":84,"gini_est":40,"co2_t_pc_est":12.1,"note":"Indicadores proxy educativos (no oficiales)"},"cities":[{"n":1,"name":"Altai Sum","lat":45.8343388,"lon":98.2261645,"geoLabel":"Camping Mongolia III"},{"n":2,"name":"Enkh tolgoi","capital":null},{"n":3,"name":"Khatgal","lat":50.44477,"lon":100.15806,"geoLabel":"Khatgal"},{"n":4,"name":"Khorgo","lat":48.1527481,"lon":99.8982145,"geoLabel":"khorgo"},{"n":5,"name":"Khukh-Uzuur","capital":null},{"n":6,"name":"Matad","lat":47.0917645,"lon":115.6908976,"geoLabel":"Матад ᠮᠠᠲᠠᠳ"},{"n":7,"name":"Sainshand","lat":44.8883913,"lon":110.1431263,"geoLabel":"Сайншанд ᠰᠠᠶᠢᠨᠱᠠᠩᠳᠠ"},{"n":8,"name":"Tugul","lat":47.854857,"lon":106.8320483,"geoLabel":"Khan Tugul hothon"},{"n":9,"name":"Ulaanbaatar","capital":true,"lat":47.90771,"lon":106.88324,"geoLabel":"Ulaanbaatar"},{"n":10,"name":"Ulaangom","lat":49.98111,"lon":92.06667,"geoLabel":"Ulaangom"}],"regions":[{"name":"Arhangay","color":"#e57373","type":"Province","geonunit":"Mongolia"},{"name":"Bayan-Ölgiy","color":"#f06292","type":"Province","geonunit":"Mongolia"},{"name":"Bayanhongor","color":"#ba68c8","type":"Province","geonunit":"Mongolia"},{"name":"Bulgan","color":"#9575cd","type":"Province","geonunit":"Mongolia"},{"name":"Darhan-Uul","color":"#7986cb","type":"Municipality","geonunit":"Mongolia"},{"name":"Dornod","color":"#64b5f6","type":"Province","geonunit":"Mongolia"},{"name":"Dornogovi","color":"#4fc3f7","type":"Province","geonunit":"Mongolia"},{"name":"Dundgovi","color":"#4dd0e1","type":"Province","geonunit":"Mongolia"},{"name":"Zavhan","color":"#4db6ac","type":"Province","geonunit":"Mongolia"},{"name":"Govi-Altay","color":"#81c784","type":"Province","geonunit":"Mongolia"},{"name":"Govisümber","color":"#aed581","type":"Municipality","geonunit":"Mongolia"},{"name":"Hentiy","color":"#dce775","type":"Province","geonunit":"Mongolia"},{"name":"Hovd","color":"#fff176","type":"Province","geonunit":"Mongolia"},{"name":"Hövsgöl","color":"#ffd54f","type":"Province","geonunit":"Mongolia"},{"name":"Ömnögovi","color":"#ffb74d","type":"Province","geonunit":"Mongolia"},{"name":"Orhon","color":"#ff8a65","type":"Municipality","geonunit":"Mongolia"},{"name":"Övörhangay","color":"#a1887f","type":"Province","geonunit":"Mongolia"},{"name":"Selenge","color":"#90a4ae","type":"Province","geonunit":"Mongolia"},{"name":"Sühbaatar","color":"#f48fb1","type":"Province","geonunit":"Mongolia"},{"name":"Töv","color":"#ce93d8","type":"Province","geonunit":"Mongolia"},{"name":"Ulán Bator","color":"#b39ddb","type":"Municipality","geonunit":"Mongolia"},{"name":"Uvs","color":"#9fa8da","type":"Province","geonunit":"Mongolia"}],"hasBorder":true,"hasAdmin":true,"borderUrl":"assets/borders/mn.json","regionsUrl":"assets/admin1/mn.json","flagUrl":"https://flagcdn.com/w160/mn.png","flagUrl40":"https://flagcdn.com/w40/mn.png"}