{"key":"Mozambique","es":"Mozambique","iso":"mz","iso2":"MZ","center":[-18.7,35.5],"zoom":5,"capital":"Maputo","capital_real":"Maputo","tiles":16,"tileNames":["Beira","Caia","Chimoio","Chinde","Cuamba","Inharimme","Lichinga","Mapinhane","Maputo","Mucuba","Mueda","Nampula","Pemba","Quelimane","Songo","Tete"],"region":"Africa","subregion":"Eastern Africa","continent":"África","poblacion":33635160,"poblacion_fmt":"33.6M","pib_m":22745,"pib_m_fmt":"22,745","pib_pc":676,"pib_pc_fmt":"676","deuda_pct":"90.83%","idh":"0.461","area_km2":801590,"anio":"2025*","fuentes":["dossier_datosmacro","worldbank_pop_2024","worldbank_gdp_2023","apicountries"],"military":{"defense_pct_pib":1.3,"defense_m_usd":284,"troops_est":129294,"power_index":4.65,"note":"Estimación educativa derivada de PIB/población/IDH — no es dato oficial"},"socio":{"life_expectancy":66,"literacy_pct":68,"gini_est":46,"co2_t_pc_est":1.2,"note":"Indicadores proxy educativos (no oficiales)"},"cities":[{"n":1,"name":"Beira","lat":-19.84361,"lon":34.83889,"geoLabel":"Beira"},{"n":2,"name":"Caia","lat":-17.82028,"lon":35.34417,"geoLabel":"Caia"},{"n":3,"name":"Chimoio","lat":-19.11639,"lon":33.48333,"geoLabel":"Chimoio"},{"n":4,"name":"Chinde","lat":-18.58111,"lon":36.45861,"geoLabel":"Chinde"},{"n":5,"name":"Cuamba","lat":-14.80306,"lon":36.53722,"geoLabel":"Cuamba"},{"n":6,"name":"Inharimme","capital":null},{"n":7,"name":"Lichinga","lat":-13.31278,"lon":35.24056,"geoLabel":"Lichinga"},{"n":8,"name":"Mapinhane","lat":-22.26722,"lon":35.11611,"geoLabel":"Mapinhane"},{"n":9,"name":"Maputo","capital":true,"lat":-25.96553,"lon":32.58322,"geoLabel":"Maputo"},{"n":10,"name":"Mucuba","lat":-22.52639,"lon":32.48056,"geoLabel":"Mucuba"},{"n":11,"name":"Mueda","lat":-11.66278,"lon":39.55056,"geoLabel":"Mueda"},{"n":12,"name":"Nampula","lat":-15.11646,"lon":39.2666,"geoLabel":"Nampula"},{"n":13,"name":"Pemba","lat":-12.97395,"lon":40.51775,"geoLabel":"Pemba"},{"n":14,"name":"Quelimane","lat":-17.87861,"lon":36.88833,"geoLabel":"Quelimane"},{"n":15,"name":"Songo","lat":-15.5951011,"lon":32.7749575,"geoLabel":"Songo"},{"n":16,"name":"Tete","lat":-16.15639,"lon":33.58667,"geoLabel":"Tete"}],"regions":[{"name":"Cabo Delgado","color":"#e57373","type":"Province","geonunit":"Mozambique"},{"name":"Gaza","color":"#f06292","type":"Province","geonunit":"Mozambique"},{"name":"Inhambane","color":"#ba68c8","type":"Province","geonunit":"Mozambique"},{"name":"Manica","color":"#9575cd","type":"Province","geonunit":"Mozambique"},{"name":"Maputo","color":"#7986cb","type":"Province","geonunit":"Mozambique"},{"name":"Maputo","color":"#64b5f6","type":"Province","geonunit":"Mozambique"},{"name":"Nampula","color":"#4fc3f7","type":"Province","geonunit":"Mozambique"},{"name":"Niassa","color":"#4dd0e1","type":"Province","geonunit":"Mozambique"},{"name":"Sofala","color":"#4db6ac","type":"Province","geonunit":"Mozambique"},{"name":"Tete","color":"#81c784","type":"Province","geonunit":"Mozambique"},{"name":"Zambezia","color":"#aed581","type":"Province","geonunit":"Mozambique"}],"hasBorder":true,"hasAdmin":true,"borderUrl":"assets/borders/mz.json","regionsUrl":"assets/admin1/mz.json","flagUrl":"https://flagcdn.com/w160/mz.png","flagUrl40":"https://flagcdn.com/w40/mz.png"}