{"key":"Myanmar","es":"Myanmar","iso":"mm","iso2":"MM","center":[21.9,95.96],"zoom":5,"capital":"Nay Pyi Taw","capital_real":"Naypyidaw","tiles":18,"tileNames":["Hwambi","Keng Tung","Lashio","Mandalay","Mawlaik","Mawlamyine","Mong Hsat","Mongla","Monywa","Myelk","Myitkyina","Namhkam","Nay Pyi Taw","Pathein","Puta-O","Pyay","Taunggyi","Yangon"],"region":"Asia","subregion":"South-Eastern Asia","continent":"Asia","poblacion":54652000,"poblacion_fmt":"54.7M","pib_m":74068,"pib_m_fmt":"74,068","pib_pc":1355,"pib_pc_fmt":"1,355","deuda_pct":"48.72%","idh":"0.608","area_km2":676578,"anio":"2025*","fuentes":["dossier_datosmacro","worldbank_pop_2024","worldbank_gdp_2023","apicountries"],"military":{"defense_pct_pib":1.3,"defense_m_usd":964,"troops_est":242218,"power_index":5.15,"note":"Estimación educativa derivada de PIB/población/IDH — no es dato oficial"},"socio":{"life_expectancy":71,"literacy_pct":76,"gini_est":43,"co2_t_pc_est":2.4,"note":"Indicadores proxy educativos (no oficiales)"},"cities":[{"n":1,"name":"Hwambi","capital":null},{"n":2,"name":"Keng Tung","lat":21.63093,"lon":99.92676,"geoLabel":"Kēng Tung"},{"n":3,"name":"Lashio","lat":22.9359,"lon":97.7498,"geoLabel":"Lashio"},{"n":4,"name":"Mandalay","lat":21.97473,"lon":96.08359,"geoLabel":"Mandalay"},{"n":5,"name":"Mawlaik","lat":23.64254,"lon":94.40478,"geoLabel":"Mawlaik"},{"n":6,"name":"Mawlamyine","lat":16.49051,"lon":97.62825,"geoLabel":"Mawlamyine"},{"n":7,"name":"Mong Hsat","lat":20.53531,"lon":99.25609,"geoLabel":"Möng Hsat"},{"n":8,"name":"Mongla","lat":21.5469198,"lon":99.9295648,"geoLabel":"မိုင်းလား"},{"n":9,"name":"Monywa","lat":22.10856,"lon":95.13583,"geoLabel":"Monywa"},{"n":10,"name":"Myelk","capital":null},{"n":11,"name":"Myitkyina","lat":25.38327,"lon":97.39637,"geoLabel":"Myitkyina"},{"n":12,"name":"Namhkam","lat":23.83342,"lon":97.67984,"geoLabel":"Namhkam"},{"n":13,"name":"Nay Pyi Taw","capital":true,"lat":19.745,"lon":96.12972,"geoLabel":"Nay Pyi Taw"},{"n":14,"name":"Pathein","lat":16.77919,"lon":94.73212,"geoLabel":"Pathein"},{"n":15,"name":"Puta-O","lat":27.2581853,"lon":97.8915986,"geoLabel":"ပူတာအိုခရိုင်"},{"n":16,"name":"Pyay","lat":18.81996,"lon":95.21562,"geoLabel":"Prome"},{"n":17,"name":"Taunggyi","lat":20.78919,"lon":97.03776,"geoLabel":"Taunggyi"},{"n":18,"name":"Yangon","lat":16.80528,"lon":96.15611,"geoLabel":"Yangon"}],"regions":[{"name":"Ayeyarwady","color":"#e57373","type":"Division","geonunit":"Myanmar"},{"name":"Bago","color":"#f06292","type":"Division","geonunit":"Myanmar"},{"name":"Chin","color":"#ba68c8","type":"State","geonunit":"Myanmar"},{"name":"Estado Kachin","color":"#9575cd","type":"State","geonunit":"Myanmar"},{"name":"Kayah","color":"#7986cb","type":"State","geonunit":"Myanmar"},{"name":"Kayin","color":"#64b5f6","type":"State","geonunit":"Myanmar"},{"name":"Magway","color":"#4fc3f7","type":"Division","geonunit":"Myanmar"},{"name":"Mandalay","color":"#4dd0e1","type":"Division","geonunit":"Myanmar"},{"name":"Estado Mon","color":"#4db6ac","type":"State","geonunit":"Myanmar"},{"name":"Rakhine","color":"#81c784","type":"State","geonunit":"Myanmar"},{"name":"División de Sagaing","color":"#aed581","type":"Division","geonunit":"Myanmar"},{"name":"Shan","color":"#dce775","type":"State","geonunit":"Myanmar"},{"name":"Tanintharyi","color":"#fff176","type":"Division","geonunit":"Myanmar"},{"name":"Yangon","color":"#ffd54f","type":"Division","geonunit":"Myanmar"}],"hasBorder":true,"hasAdmin":true,"borderUrl":"assets/borders/mm.json","regionsUrl":"assets/admin1/mm.json","flagUrl":"https://flagcdn.com/w160/mm.png","flagUrl40":"https://flagcdn.com/w40/mm.png"}