{"key":"Netherlands","es":"Países Bajos","iso":"nl","iso2":"NL","center":[52.1,5.3],"zoom":7,"capital":"Amsterdam","capital_real":"Amsterdam","tiles":7,"tileNames":["Alkmaar","Amsterdam","Eindhoven","Goes","Groningen","Heerenveen","Zwolle"],"region":"Europe","subregion":"Western Europe","continent":"Europa","poblacion":18044000,"poblacion_fmt":"18M","pib_m":1332768,"pib_m_fmt":"1,332,768","pib_pc":73862,"pib_pc_fmt":"73,862","deuda_pct":"44.40%","idh":"0.946","area_km2":41850,"anio":"2025*","fuentes":["dossier_datosmacro","worldbank_pop_2024","worldbank_gdp_2023","apicountries"],"military":{"defense_pct_pib":3.7,"defense_m_usd":49312,"troops_est":104366,"power_index":6.2,"note":"Estimación educativa derivada de PIB/población/IDH — no es dato oficial"},"socio":{"life_expectancy":83,"literacy_pct":97,"gini_est":36,"co2_t_pc_est":133,"note":"Indicadores proxy educativos (no oficiales)"},"cities":[{"n":1,"name":"Alkmaar","lat":52.63167,"lon":4.74861,"geoLabel":"Alkmaar"},{"n":2,"name":"Amsterdam","capital":true,"lat":52.37403,"lon":4.88969,"geoLabel":"Amsterdam"},{"n":3,"name":"Eindhoven","lat":51.44083,"lon":5.47778,"geoLabel":"Eindhoven"},{"n":4,"name":"Goes","lat":51.50417,"lon":3.88889,"geoLabel":"Goes"},{"n":5,"name":"Groningen","lat":53.21917,"lon":6.56667,"geoLabel":"Groningen"},{"n":6,"name":"Heerenveen","lat":52.95929,"lon":5.91854,"geoLabel":"Heerenveen"},{"n":7,"name":"Zwolle","lat":52.5125,"lon":6.09444,"geoLabel":"Zwolle"}],"regions":[{"name":"Bonaire","color":"#e57373","type":"Special Municipality","geonunit":"Caribbean Netherlands"},{"name":"Drente","color":"#f06292","type":"Province","geonunit":"Netherlands"},{"name":"Flevoland","color":"#ba68c8","type":"Province","geonunit":"Netherlands"},{"name":"Frisia","color":"#9575cd","type":"Province","geonunit":"Netherlands"},{"name":"Güeldres","color":"#7986cb","type":"Province","geonunit":"Netherlands"},{"name":"Groninga","color":"#64b5f6","type":"Province","geonunit":"Netherlands"},{"name":"Limburgo","color":"#4fc3f7","type":"Province","geonunit":"Netherlands"},{"name":"Brabante Septentrional","color":"#4dd0e1","type":"Province","geonunit":"Netherlands"},{"name":"Holanda Septentrional","color":"#4db6ac","type":"Province","geonunit":"Netherlands"},{"name":"Overijssel","color":"#81c784","type":"Province","geonunit":"Netherlands"},{"name":"Saba","color":"#aed581","type":"Special Municipality","geonunit":"Netherlands"},{"name":"San Eustaquio","color":"#dce775","type":"Special Municipality","geonunit":"Netherlands"},{"name":"Utrecht","color":"#fff176","type":"Province","geonunit":"Netherlands"},{"name":"Zelanda","color":"#ffd54f","type":"Province","geonunit":"Netherlands"},{"name":"Holanda Meridional","color":"#ffb74d","type":"Province","geonunit":"Netherlands"}],"hasBorder":true,"hasAdmin":true,"borderUrl":"assets/borders/nl.json","regionsUrl":"assets/admin1/nl.json","flagUrl":"https://flagcdn.com/w160/nl.png","flagUrl40":"https://flagcdn.com/w40/nl.png"}