{"key":"NorthKorea","es":"Corea del Norte","iso":"kp","iso2":"KP","center":[40.3,127.5],"zoom":6,"capital":"Pyongyang","capital_real":"Pyongyang","tiles":7,"tileNames":["Byesan","Chongjin","Kosong","Nampo","Pyongyang","Rason","Wonsan"],"region":"Asia","subregion":"Eastern Asia","continent":"Asia","poblacion":26498823,"poblacion_fmt":"26.5M","pib_m":18000,"pib_m_fmt":"18,000","pib_pc":680,"pib_pc_fmt":"680","deuda_pct":"N/D","idh":"N/D","area_km2":120538,"anio":"2025*","fuentes":["worldbank_pop_2024","apicountries"],"military":{"defense_pct_pib":1.3,"defense_m_usd":225,"troops_est":105995,"power_index":4.61,"note":"Estimación educativa derivada de PIB/población/IDH — no es dato oficial"},"socio":{"life_expectancy":null,"literacy_pct":null,"gini_est":null,"co2_t_pc_est":1.2,"note":"Indicadores proxy educativos (no oficiales)"},"cities":[{"n":1,"name":"Byesan","capital":null},{"n":2,"name":"Chongjin","lat":41.79556,"lon":129.77583,"geoLabel":"Chongjin"},{"n":3,"name":"Kosong","lat":38.37881,"lon":128.4676,"geoLabel":"Kosong"},{"n":4,"name":"Nampo","lat":38.7375,"lon":125.40778,"geoLabel":"Nampo"},{"n":5,"name":"Pyongyang","capital":true,"lat":39.03385,"lon":125.75432,"geoLabel":"Pyongyang"},{"n":6,"name":"Rason","lat":42.2497316,"lon":130.3113296,"geoLabel":"라선시"},{"n":7,"name":"Wonsan","lat":39.15278,"lon":127.44361,"geoLabel":"Wonsan"}],"regions":[{"name":"Chagang","color":"#e57373","type":"Province","geonunit":"North Korea"},{"name":"Hamgyŏng del Norte","color":"#f06292","type":"Province","geonunit":"North Korea"},{"name":"Hamgyŏng del Sur","color":"#ba68c8","type":"Province","geonunit":"North Korea"},{"name":"Hwanghae del Norte","color":"#9575cd","type":"Province","geonunit":"North Korea"},{"name":"Hwanghae del Sur","color":"#7986cb","type":"Province","geonunit":"North Korea"},{"name":"Kangwon-do","color":"#64b5f6","type":"Province","geonunit":"North Korea"},{"name":"P'yŏngan del Norte","color":"#4fc3f7","type":"Province","geonunit":"North Korea"},{"name":"P'yŏngan del Sur","color":"#4dd0e1","type":"Province","geonunit":"North Korea"},{"name":"Pionyang","color":"#4db6ac","type":"Special City","geonunit":"North Korea"},{"name":"Rasŏn","color":"#81c784","type":"Province","geonunit":"North Korea"},{"name":"Ryanggang","color":"#aed581","type":"Province","geonunit":"North Korea"}],"hasBorder":true,"hasAdmin":true,"borderUrl":"assets/borders/kp.json","regionsUrl":"assets/admin1/kp.json","flagUrl":"https://flagcdn.com/w160/kp.png","flagUrl40":"https://flagcdn.com/w40/kp.png"}