{"key":"Pakistan","es":"Pakistán","iso":"pk","iso2":"PK","center":[30.4,69.3],"zoom":5,"capital":"Islamabad","capital_real":"Islamabad","tiles":16,"tileNames":["Awaran","Chagali","Chaman","Gujranwala","Gwadar","Islamabad","Karachi","Lahore","Larkana","Loralai","Peshawar","Sambaza","Saravan","Sibi","Sukkur","Wana"],"region":"Asia","subregion":"Southern Asia","continent":"Asia","poblacion":235950000,"poblacion_fmt":"235.9M","pib_m":372243,"pib_m_fmt":"372,243","pib_pc":1578,"pib_pc_fmt":"1,578","deuda_pct":"70.22%","idh":"0.540","area_km2":881912,"anio":"2025*","fuentes":["dossier_datosmacro","worldbank_pop_2024","worldbank_gdp_2023","apicountries"],"military":{"defense_pct_pib":1.3,"defense_m_usd":4907,"troops_est":981552,"power_index":5.46,"note":"Estimación educativa derivada de PIB/población/IDH — no es dato oficial"},"socio":{"life_expectancy":69,"literacy_pct":72,"gini_est":44,"co2_t_pc_est":2.8,"note":"Indicadores proxy educativos (no oficiales)"},"cities":[{"n":1,"name":"Awaran","lat":26.45677,"lon":65.23144,"geoLabel":"Awaran"},{"n":2,"name":"Chagali","capital":null},{"n":3,"name":"Chaman","lat":30.91769,"lon":66.45259,"geoLabel":"Chaman"},{"n":4,"name":"Gujranwala","lat":32.15567,"lon":74.18705,"geoLabel":"Gujranwala"},{"n":5,"name":"Gwadar","lat":25.12163,"lon":62.32541,"geoLabel":"Gwadar"},{"n":6,"name":"Islamabad","capital":true,"lat":33.72148,"lon":73.04329,"geoLabel":"Islamabad"},{"n":7,"name":"Karachi","lat":24.8608,"lon":67.0104,"geoLabel":"Karachi"},{"n":8,"name":"Lahore","lat":31.558,"lon":74.35071,"geoLabel":"Lahore"},{"n":9,"name":"Larkana","lat":27.55898,"lon":68.21204,"geoLabel":"Larkana"},{"n":10,"name":"Loralai","lat":30.37051,"lon":68.59795,"geoLabel":"Loralai"},{"n":11,"name":"Peshawar","lat":34.008,"lon":71.57849,"geoLabel":"Peshawar"},{"n":12,"name":"Sambaza","lat":31.7735927,"lon":69.3506108,"geoLabel":"Sambaza"},{"n":13,"name":"Saravan","lat":27.37089,"lon":62.33096,"geoLabel":"Sarāvān"},{"n":14,"name":"Sibi","lat":29.54299,"lon":67.87726,"geoLabel":"Sibi"},{"n":15,"name":"Sukkur","lat":27.70323,"lon":68.85889,"geoLabel":"Sukkur"},{"n":16,"name":"Wana","lat":32.3073624,"lon":69.5907178,"geoLabel":"وانا‎‎"}],"regions":[{"name":"Azad Cachemira","color":"#e57373","type":"Centrally Administered Area","geonunit":"Pakistan"},{"name":"Baluchistán","color":"#f06292","type":"Province","geonunit":"Pakistan"},{"name":"Áreas tribales","color":"#ba68c8","type":"Territory","geonunit":"Pakistan"},{"name":"F.C.T.","color":"#9575cd","type":"Capital Territory","geonunit":"Pakistan"},{"name":"Khyber Pakhtunkhwa","color":"#7986cb","type":"Province","geonunit":"Pakistan"},{"name":"Gilgit-Baltistán","color":"#64b5f6","type":"Centrally Administered Area","geonunit":"Pakistan"},{"name":"Punyab","color":"#4fc3f7","type":"Province","geonunit":"Pakistan"},{"name":"Sindh","color":"#4dd0e1","type":"Province","geonunit":"Pakistan"}],"hasBorder":true,"hasAdmin":true,"borderUrl":"assets/borders/pk.json","regionsUrl":"assets/admin1/pk.json","flagUrl":"https://flagcdn.com/w160/pk.png","flagUrl40":"https://flagcdn.com/w40/pk.png"}