{"key":"SaudiArabia","es":"Arabia Saudita","iso":"sa","iso2":"SA","center":[23.9,45.1],"zoom":5,"capital":"Riyadh","capital_real":"Riyadh","tiles":18,"tileNames":["Ad Dawadmi","Al Hofuf","Al-Qunfudha","Ha'il","Hafar Al Batin","Jeddah","Marsawdad","Medine","Najran","Qaray Al 'Ulya","Qurayyet","Riyadh","Riyadh Region","Sakahah","Shahrurah","Tabuk","Tayma","Umm Athelah"],"region":"Asia","subregion":"Western Asia","continent":"Asia","poblacion":35300280,"poblacion_fmt":"35.3M","pib_m":1067583,"pib_m_fmt":"1,067,583","pib_pc":30243,"pib_pc_fmt":"30,243","deuda_pct":"N/D","idh":"N/D","area_km2":2149690,"anio":"2025*","fuentes":["worldbank_pop_2024","worldbank_gdp_2023","apicountries"],"military":{"defense_pct_pib":3.5,"defense_m_usd":37026,"troops_est":141201,"power_index":5.55,"note":"Estimación educativa derivada de PIB/población/IDH — no es dato oficial"},"socio":{"life_expectancy":null,"literacy_pct":null,"gini_est":null,"co2_t_pc_est":54.4,"note":"Indicadores proxy educativos (no oficiales)"},"cities":[{"n":1,"name":"Ad Dawadmi","lat":24.6059331,"lon":46.6156432,"geoLabel":"أبي الفرج الدوادمي"},{"n":2,"name":"Al Hofuf","lat":25.3696585,"lon":49.5865224,"geoLabel":"الهفوف"},{"n":3,"name":"Al-Qunfudha","capital":null},{"n":4,"name":"Ha'il","lat":27.52188,"lon":41.69073,"geoLabel":"Ha'il"},{"n":5,"name":"Hafar Al Batin","lat":28.4328084,"lon":45.9627527,"geoLabel":"حفر الباطن"},{"n":6,"name":"Jeddah","lat":21.49012,"lon":39.18624,"geoLabel":"Jeddah"},{"n":7,"name":"Marsawdad","lat":19.43058,"lon":54.41558,"geoLabel":"Marsawdad"},{"n":8,"name":"Medine","lat":24.46861,"lon":39.61417,"geoLabel":"Medina"},{"n":9,"name":"Najran","lat":17.49326,"lon":44.12766,"geoLabel":"Najran"},{"n":10,"name":"Qaray Al 'Ulya","capital":null},{"n":11,"name":"Qurayyet","capital":null},{"n":12,"name":"Riyadh","capital":true,"lat":24.68773,"lon":46.72185,"geoLabel":"Riyadh"},{"n":13,"name":"Riyadh Region","capital":null},{"n":14,"name":"Sakahah","capital":null},{"n":15,"name":"Shahrurah","capital":null},{"n":16,"name":"Tabuk","lat":28.3998,"lon":36.57151,"geoLabel":"Tabuk"},{"n":17,"name":"Tayma","lat":32.83789,"lon":36.76261,"geoLabel":"Taymā"},{"n":18,"name":"Umm Athelah","capital":null}],"regions":[{"name":"Asir","color":"#e57373","type":"Region","geonunit":"Saudi Arabia"},{"name":"Baha","color":"#f06292","type":"Region","geonunit":"Saudi Arabia"},{"name":"la Frontera del Norte","color":"#ba68c8","type":"Region","geonunit":"Saudi Arabia"},{"name":"Yauf","color":"#9575cd","type":"Region","geonunit":"Saudi Arabia"},{"name":"Medina","color":"#7986cb","type":"Region","geonunit":"Saudi Arabia"},{"name":"Casim","color":"#64b5f6","type":"Region","geonunit":"Saudi Arabia"},{"name":"Riad","color":"#4fc3f7","type":"Region","geonunit":"Saudi Arabia"},{"name":"Oriental","color":"#4dd0e1","type":"Region","geonunit":"Saudi Arabia"},{"name":"Haíl","color":"#4db6ac","type":"Region","geonunit":"Saudi Arabia"},{"name":"Jizán","color":"#81c784","type":"Region","geonunit":"Saudi Arabia"},{"name":"La Meca","color":"#aed581","type":"Region","geonunit":"Saudi Arabia"},{"name":"Najrán","color":"#dce775","type":"Region","geonunit":"Saudi Arabia"},{"name":"Tabuk","color":"#fff176","type":"Region","geonunit":"Saudi Arabia"}],"hasBorder":true,"hasAdmin":true,"borderUrl":"assets/borders/sa.json","regionsUrl":"assets/admin1/sa.json","flagUrl":"https://flagcdn.com/w160/sa.png","flagUrl40":"https://flagcdn.com/w40/sa.png"}