{"key":"Serbia","es":"Serbia","iso":"rs","iso2":"RS","center":[44,21],"zoom":7,"capital":"Belgrade","capital_real":"Belgrade","tiles":9,"tileNames":["Belgrade","Nis","Novi Pazar","Novi Sad","Pristina","Sabac","Sid","Sombor","Vranje"],"region":"Europe","subregion":"Southern Europe","continent":"Europa","poblacion":6567783,"poblacion_fmt":"6.6M","pib_m":99953,"pib_m_fmt":"99,953","pib_pc":15219,"pib_pc_fmt":"15,219","deuda_pct":"44.06%","idh":"0.805","area_km2":88361,"anio":"2025*","fuentes":["dossier_datosmacro","worldbank_pop_2024","worldbank_gdp_2023","apicountries"],"military":{"defense_pct_pib":2.3,"defense_m_usd":2340,"troops_est":34284,"power_index":5.39,"note":"Estimación educativa derivada de PIB/población/IDH — no es dato oficial"},"socio":{"life_expectancy":78,"literacy_pct":88,"gini_est":39,"co2_t_pc_est":27.4,"note":"Indicadores proxy educativos (no oficiales)"},"cities":[{"n":1,"name":"Belgrade","capital":true,"lat":44.80401,"lon":20.46513,"geoLabel":"Belgrade"},{"n":2,"name":"Nis","lat":43.32472,"lon":21.90333,"geoLabel":"Niš"},{"n":3,"name":"Novi Pazar","lat":43.13667,"lon":20.51222,"geoLabel":"Novi Pazar"},{"n":4,"name":"Novi Sad","lat":45.25167,"lon":19.83694,"geoLabel":"Novi Sad"},{"n":5,"name":"Pristina","lat":42.67272,"lon":21.16688,"geoLabel":"Pristina"},{"n":6,"name":"Sabac","lat":44.74667,"lon":19.69,"geoLabel":"Šabac"},{"n":7,"name":"Sid","lat":45.1277121,"lon":19.2271561,"geoLabel":"Шид"},{"n":8,"name":"Sombor","lat":45.77417,"lon":19.11222,"geoLabel":"Sombor"},{"n":9,"name":"Vranje","lat":42.55139,"lon":21.90028,"geoLabel":"Vranje"}],"regions":[{"name":"Bor","color":"#e57373","type":"District","geonunit":"Serbia"},{"name":"Braničevo","color":"#f06292","type":"District","geonunit":"Serbia"},{"name":"Belgrado","color":"#ba68c8","type":"City","geonunit":"Serbia"},{"name":"Jablanica","color":"#9575cd","type":"District","geonunit":"Serbia"},{"name":"Bačka del Sur","color":"#7986cb","type":"District","geonunit":"Vojvodina"},{"name":"Banato del Sur","color":"#64b5f6","type":"District","geonunit":"Vojvodina"},{"name":"Kolubara","color":"#4fc3f7","type":"District","geonunit":"Serbia"},{"name":"Mačva","color":"#4dd0e1","type":"District","geonunit":"Serbia"},{"name":"Moravica","color":"#4db6ac","type":"District","geonunit":"Serbia"},{"name":"Nišava","color":"#81c784","type":"District","geonunit":"Serbia"},{"name":"Pčinja","color":"#aed581","type":"District","geonunit":"Serbia"},{"name":"Pirot","color":"#dce775","type":"District","geonunit":"Serbia"},{"name":"Podunavlje","color":"#fff176","type":"District","geonunit":"Serbia"},{"name":"Rasina","color":"#ffd54f","type":"District","geonunit":"Serbia"},{"name":"Pomoravski","color":"#ffb74d","type":"District","geonunit":"Serbia"},{"name":"Raška","color":"#ff8a65","type":"District","geonunit":"Serbia"},{"name":"Bačka del Norte","color":"#a1887f","type":"District","geonunit":"Vojvodina"},{"name":"Banato del Norte","color":"#90a4ae","type":"District","geonunit":"Vojvodina"},{"name":"Banato Central","color":"#f48fb1","type":"District","geonunit":"Vojvodina"},{"name":"Sirmia","color":"#ce93d8","type":"District","geonunit":"Vojvodina"},{"name":"Šumadija","color":"#b39ddb","type":"District","geonunit":"Serbia"},{"name":"Toplica","color":"#9fa8da","type":"District","geonunit":"Serbia"},{"name":"Zaječar","color":"#90caf9","type":"District","geonunit":"Serbia"},{"name":"Bačka del Oeste","color":"#81d4fa","type":"District","geonunit":"Vojvodina"},{"name":"Zlatibor","color":"#80deea","type":"District","geonunit":"Serbia"}],"hasBorder":true,"hasAdmin":true,"borderUrl":"assets/borders/rs.json","regionsUrl":"assets/admin1/rs.json","flagUrl":"https://flagcdn.com/w160/rs.png","flagUrl40":"https://flagcdn.com/w40/rs.png"}