{"key":"Sudan","es":"Sudán","iso":"sd","iso2":"SD","center":[12.9,30.2],"zoom":5,"capital":"Khartoum","capital_real":"Khartoum","tiles":18,"tileNames":["Ad-Damazin","Al Fashir","Al Junaynah","Al Qadarif","Atbara","El Obeid","Kerma","Khartoum","Nyala","Port Sudan","Salala","Semna","Sudan Desert","Sudan Desert 2","Sudan Desert 3","Sudan Desert 4","Taiodi","Um Dukhun"],"region":"Africa","subregion":"Northern Africa","continent":"África","poblacion":50448963,"poblacion_fmt":"50.4M","pib_m":109327,"pib_m_fmt":"109,327","pib_pc":2167,"pib_pc_fmt":"2,167","deuda_pct":"N/D","idh":"N/D","area_km2":1886068,"anio":"2025*","fuentes":["worldbank_pop_2024","worldbank_gdp_2023","apicountries"],"military":{"defense_pct_pib":1.4,"defense_m_usd":1490,"troops_est":201796,"power_index":5.07,"note":"Estimación educativa derivada de PIB/población/IDH — no es dato oficial"},"socio":{"life_expectancy":null,"literacy_pct":null,"gini_est":null,"co2_t_pc_est":3.9,"note":"Indicadores proxy educativos (no oficiales)"},"cities":[{"n":1,"name":"Ad-Damazin","lat":11.7891,"lon":34.3592,"geoLabel":"Ad-Damazin"},{"n":2,"name":"Al Fashir","lat":14.7377,"lon":33.04,"geoLabel":"Al Fāshir"},{"n":3,"name":"Al Junaynah","lat":13.4420205,"lon":22.4459786,"geoLabel":"الجنينة"},{"n":4,"name":"Al Qadarif","lat":14.03493,"lon":35.38344,"geoLabel":"Gedaref"},{"n":5,"name":"Atbara","lat":17.70217,"lon":33.98638,"geoLabel":"Atbara"},{"n":6,"name":"El Obeid","lat":13.18421,"lon":30.21669,"geoLabel":"Al-Ubayyid"},{"n":7,"name":"Kerma","lat":19.593098,"lon":30.4091017,"geoLabel":"كرمة"},{"n":8,"name":"Khartoum","capital":true,"lat":15.55177,"lon":32.53241,"geoLabel":"Khartoum"},{"n":9,"name":"Nyala","lat":12.04888,"lon":24.88069,"geoLabel":"Nyala"},{"n":10,"name":"Port Sudan","lat":19.61745,"lon":37.21644,"geoLabel":"Port Sudan"},{"n":11,"name":"Salala","lat":12.5578128,"lon":22.7049856,"geoLabel":"Salala"},{"n":12,"name":"Semna","lat":21.46667,"lon":31.01667,"geoLabel":"Semna East"},{"n":13,"name":"Sudan Desert","capital":null},{"n":14,"name":"Sudan Desert 2","capital":null},{"n":15,"name":"Sudan Desert 3","capital":null},{"n":16,"name":"Sudan Desert 4","capital":null},{"n":17,"name":"Taiodi","capital":null},{"n":18,"name":"Um Dukhun","lat":11.3575,"lon":23.3034312,"geoLabel":"Um Dukhun - أم دخن"}],"regions":[{"name":"Nilo Azul","color":"#e57373","type":"State","geonunit":"Sudan"},{"name":"Darfur Central","color":"#f06292","type":"State","geonunit":"Sudan"},{"name":"Darfur del Este","color":"#ba68c8","type":"State","geonunit":"Sudan"},{"name":"Gadarif","color":"#9575cd","type":"State","geonunit":"Sudan"},{"name":"Gezira","color":"#7986cb","type":"State","geonunit":"Sudan"},{"name":"Kasala","color":"#64b5f6","type":"State","geonunit":"Sudan"},{"name":"Jartum","color":"#4fc3f7","type":"Region","geonunit":"Sudan"},{"name":"Darfur del Norte","color":"#4dd0e1","type":"State","geonunit":"Sudan"},{"name":"Kordofán del Norte","color":"#4db6ac","type":"State","geonunit":"Sudan"},{"name":"Norte","color":"#81c784","type":"State","geonunit":"Sudan"},{"name":"Mar Rojo","color":"#aed581","type":"State","geonunit":"Sudan"},{"name":"Río Nilo","color":"#dce775","type":"State","geonunit":"Sudan"},{"name":"Sennar","color":"#fff176","type":"Region","geonunit":"Sudan"},{"name":"Kordofán del Sur","color":"#ffd54f","type":"State","geonunit":"Sudan"},{"name":"Darfur del Sur","color":"#ffb74d","type":"State","geonunit":"Sudan"},{"name":"Soudan del Oeste","color":"#ff8a65","type":"State","geonunit":"Sudan"},{"name":"Nilo Blanco","color":"#a1887f","type":"State","geonunit":"Sudan"}],"hasBorder":true,"hasAdmin":true,"borderUrl":"assets/borders/sd.json","regionsUrl":"assets/admin1/sd.json","flagUrl":"https://flagcdn.com/w160/sd.png","flagUrl40":"https://flagcdn.com/w40/sd.png"}