{"key":"Turkey","es":"Turquía","iso":"tr","iso2":"TR","center":[39,35.2],"zoom":5,"capital":"Ankara","capital_real":"Ankara","tiles":42,"tileNames":["Adana","Adiyaman","Afyonkarahisar","Amasya","Ankara","Antalya","Batman","Bodrum","Bolu","Bursa","Canakkale","Cizre","Corlu","Corum","Denizli","Diyarbakir","Edirne","Erzincan","Eskisehir","Fethiye","Gaziantep","Igdir","Iskenderun","Istanbul","Izmir","Kahramanmaras","Karabuk","Karaman","Kars","Kastamonu","Kayseri","Konya","Kusadasi","Mus","Ordu","Samsun","Sanliurfa","Sivas","Tokat","Trabzon","Van","Yozgat"],"region":"Asia","subregion":"Western Asia","continent":"Asia","poblacion":85518661,"poblacion_fmt":"85.5M","pib_m":1108022,"pib_m_fmt":"1,108,022","pib_pc":12956,"pib_pc_fmt":"12,956","deuda_pct":"N/D","idh":"N/D","area_km2":783562,"anio":"2025*","fuentes":["worldbank_pop_2024","worldbank_gdp_2023","apicountries"],"military":{"defense_pct_pib":2.2,"defense_m_usd":24063,"troops_est":342075,"power_index":5.63,"note":"Estimación educativa derivada de PIB/población/IDH — no es dato oficial"},"socio":{"life_expectancy":null,"literacy_pct":null,"gini_est":null,"co2_t_pc_est":23.3,"note":"Indicadores proxy educativos (no oficiales)"},"cities":[{"n":1,"name":"Adana","lat":36.98615,"lon":35.32531,"geoLabel":"Adana"},{"n":2,"name":"Adiyaman","lat":38.5899,"lon":44.9751,"geoLabel":"Koshkzar"},{"n":3,"name":"Afyonkarahisar","lat":38.75667,"lon":30.54333,"geoLabel":"Afyonkarahisar"},{"n":4,"name":"Amasya","lat":40.65333,"lon":35.83306,"geoLabel":"Amasya"},{"n":5,"name":"Ankara","capital":true,"lat":39.91987,"lon":32.85427,"geoLabel":"Ankara"},{"n":6,"name":"Antalya","lat":36.90812,"lon":30.69556,"geoLabel":"Antalya"},{"n":7,"name":"Batman","lat":37.88738,"lon":41.13221,"geoLabel":"Batman"},{"n":8,"name":"Bodrum","lat":37.03833,"lon":27.42917,"geoLabel":"Bodrum"},{"n":9,"name":"Bolu","lat":40.73583,"lon":31.60611,"geoLabel":"Bolu"},{"n":10,"name":"Bursa","lat":40.19559,"lon":29.06013,"geoLabel":"Bursa"},{"n":11,"name":"Canakkale","lat":40.15552,"lon":26.41271,"geoLabel":"Çanakkale"},{"n":12,"name":"Cizre","lat":37.33024,"lon":42.18484,"geoLabel":"Cizre"},{"n":13,"name":"Corlu","lat":41.16069,"lon":27.80093,"geoLabel":"Çorlu"},{"n":14,"name":"Corum","lat":40.54889,"lon":34.95333,"geoLabel":"Çorum"},{"n":15,"name":"Denizli","lat":37.77417,"lon":29.0875,"geoLabel":"Denizli"},{"n":16,"name":"Diyarbakir","lat":38.01222,"lon":39.95472,"geoLabel":"Diyarbakir Northwest"},{"n":17,"name":"Edirne","lat":41.67719,"lon":26.55597,"geoLabel":"Edirne"},{"n":18,"name":"Erzincan","lat":39.73919,"lon":39.49015,"geoLabel":"Erzincan"},{"n":19,"name":"Eskisehir","lat":39.77667,"lon":30.52056,"geoLabel":"Eskişehir"},{"n":20,"name":"Fethiye","lat":36.64038,"lon":29.12758,"geoLabel":"Fethiye"},{"n":21,"name":"Gaziantep","lat":37.05944,"lon":37.3825,"geoLabel":"Gaziantep"},{"n":22,"name":"Igdir","lat":41.22617,"lon":33.13699,"geoLabel":"İğdir"},{"n":23,"name":"Iskenderun","lat":36.58718,"lon":36.17347,"geoLabel":"İskenderun"},{"n":24,"name":"Istanbul","lat":41.01384,"lon":28.94966,"geoLabel":"Istanbul"},{"n":25,"name":"Izmir","lat":38.41273,"lon":27.13838,"geoLabel":"Izmir"},{"n":26,"name":"Kahramanmaras","lat":37.5847,"lon":36.92641,"geoLabel":"Kahramanmaraş"},{"n":27,"name":"Karabuk","lat":41.20488,"lon":32.62768,"geoLabel":"Karabük"},{"n":28,"name":"Karaman","lat":37.18111,"lon":33.215,"geoLabel":"Karaman"},{"n":29,"name":"Kars","lat":40.59825,"lon":43.08548,"geoLabel":"Kars"},{"n":30,"name":"Kastamonu","lat":41.37805,"lon":33.77528,"geoLabel":"Kastamonu"},{"n":31,"name":"Kayseri","lat":38.73222,"lon":35.48528,"geoLabel":"Kayseri"},{"n":32,"name":"Konya","lat":37.87135,"lon":32.48464,"geoLabel":"Konya"},{"n":33,"name":"Kusadasi","lat":37.86014,"lon":27.25713,"geoLabel":"Kusadasi"},{"n":34,"name":"Mus","lat":38.73163,"lon":41.48482,"geoLabel":"Muş"},{"n":35,"name":"Ordu","lat":40.97782,"lon":37.89047,"geoLabel":"Ordu"},{"n":36,"name":"Samsun","lat":41.27976,"lon":36.3361,"geoLabel":"Samsun"},{"n":37,"name":"Sanliurfa","lat":37.16708,"lon":38.79392,"geoLabel":"Sanliurfa"},{"n":38,"name":"Sivas","lat":39.74833,"lon":37.01611,"geoLabel":"Sivas"},{"n":39,"name":"Tokat","lat":40.31389,"lon":36.55444,"geoLabel":"Tokat Province"},{"n":40,"name":"Trabzon","lat":41.005,"lon":39.72694,"geoLabel":"Trabzon"},{"n":41,"name":"Van","lat":38.49457,"lon":43.38323,"geoLabel":"Van"},{"n":42,"name":"Yozgat","lat":39.82,"lon":34.80444,"geoLabel":"Yozgat"}],"regions":[{"name":"Adana","color":"#e57373","type":"Province","geonunit":"Turkey"},{"name":"Adıyaman","color":"#f06292","type":"Province","geonunit":"Turkey"},{"name":"Afyonkarahisar","color":"#ba68c8","type":"Province","geonunit":"Turkey"},{"name":"Ağrı","color":"#9575cd","type":"Province","geonunit":"Turkey"},{"name":"Aksaray","color":"#7986cb","type":"Province","geonunit":"Turkey"},{"name":"Amasya","color":"#64b5f6","type":"Province","geonunit":"Turkey"},{"name":"Ankara","color":"#4fc3f7","type":"Province","geonunit":"Turkey"},{"name":"Antalya","color":"#4dd0e1","type":"Province","geonunit":"Turkey"},{"name":"Ardahan","color":"#4db6ac","type":"Province","geonunit":"Turkey"},{"name":"Artvin","color":"#81c784","type":"Province","geonunit":"Turkey"},{"name":"Aydin","color":"#aed581","type":"Province","geonunit":"Turkey"},{"name":"Balıkesir","color":"#dce775","type":"Province","geonunit":"Turkey"},{"name":"Bartın","color":"#fff176","type":"Province","geonunit":"Turkey"},{"name":"Batman","color":"#ffd54f","type":"Province","geonunit":"Turkey"},{"name":"Bayburt","color":"#ffb74d","type":"Province","geonunit":"Turkey"},{"name":"Bilecik","color":"#ff8a65","type":"Province","geonunit":"Turkey"},{"name":"Bingöl","color":"#a1887f","type":"Province","geonunit":"Turkey"},{"name":"Bitlis","color":"#90a4ae","type":"Province","geonunit":"Turkey"},{"name":"Bolu","color":"#f48fb1","type":"Province","geonunit":"Turkey"},{"name":"Burdur","color":"#ce93d8","type":"Province","geonunit":"Turkey"},{"name":"Bursa","color":"#b39ddb","type":"Province","geonunit":"Turkey"},{"name":"Çanakkale","color":"#9fa8da","type":"Province","geonunit":"Turkey"},{"name":"Çankırı","color":"#90caf9","type":"Province","geonunit":"Turkey"},{"name":"Çorum","color":"#81d4fa","type":"Province","geonunit":"Turkey"},{"name":"Denizli","color":"#80deea","type":"Province","geonunit":"Turkey"},{"name":"Diyarbakır","color":"#80cbc4","type":"Province","geonunit":"Turkey"},{"name":"Düzce","color":"#a5d6a7","type":"Province","geonunit":"Turkey"},{"name":"Edirne","color":"#c5e1a5","type":"Province","geonunit":"Turkey"},{"name":"Elazığ","color":"#e6ee9c","type":"Province","geonunit":"Turkey"},{"name":"Erzincan","color":"#fff59d","type":"Province","geonunit":"Turkey"},{"name":"Erzurum","color":"#ffe082","type":"Province","geonunit":"Turkey"},{"name":"Eskişehir","color":"#ffcc80","type":"Province","geonunit":"Turkey"},{"name":"Gaziantep","color":"#ffab91","type":"Province","geonunit":"Turkey"},{"name":"Giresun","color":"#bcaaa4","type":"Province","geonunit":"Turkey"},{"name":"Gümüşhane","color":"#b0bec5","type":"Province","geonunit":"Turkey"},{"name":"Hakkâri","color":"#ef9a9a","type":"Province","geonunit":"Turkey"},{"name":"Hatay","color":"#f8bbd0","type":"Province","geonunit":"Turkey"},{"name":"Iğdır","color":"#e1bee7","type":"Province","geonunit":"Turkey"},{"name":"Isparta","color":"#d1c4e9","type":"Province","geonunit":"Turkey"},{"name":"Estambul","color":"#c5cae9","type":"Province","geonunit":"Turkey"},{"name":"Esmirna","color":"#bbdefb","type":"Province","geonunit":"Turkey"},{"name":"Kahramanmaraş","color":"#b3e5fc","type":"Province","geonunit":"Turkey"},{"name":"Karabük","color":"#b2ebf2","type":"Province","geonunit":"Turkey"},{"name":"Karaman","color":"#b2dfdb","type":"Province","geonunit":"Turkey"},{"name":"Kars","color":"#c8e6c9","type":"Province","geonunit":"Turkey"},{"name":"Kastamonu","color":"#dcedc8","type":"Province","geonunit":"Turkey"},{"name":"Kayseri","color":"#f0f4c3","type":"Province","geonunit":"Turkey"},{"name":"Kilis","color":"#fff9c4","type":"Province","geonunit":"Turkey"},{"name":"Kırıkkale","color":"#ffecb3","type":"Province","geonunit":"Turkey"},{"name":"Kırklareli","color":"#ffe0b2","type":"Province","geonunit":"Turkey"},{"name":"Kırşehir","color":"#ffccbc","type":"Province","geonunit":"Turkey"},{"name":"Kocaeli","color":"#d7ccc8","type":"Province","geonunit":"Turkey"},{"name":"Konya","color":"#cfd8dc","type":"Province","geonunit":"Turkey"},{"name":"Kütahya","color":"#e57373","type":"Province","geonunit":"Turkey"},{"name":"Malatya","color":"#f06292","type":"Province","geonunit":"Turkey"},{"name":"Manisa","color":"#ba68c8","type":"Province","geonunit":"Turkey"},{"name":"Mardin","color":"#9575cd","type":"Province","geonunit":"Turkey"},{"name":"Mersin","color":"#7986cb","type":"Province","geonunit":"Turkey"},{"name":"Muğla","color":"#64b5f6","type":"Province","geonunit":"Turkey"},{"name":"Muş","color":"#4fc3f7","type":"Province","geonunit":"Turkey"},{"name":"Nevşehir","color":"#4dd0e1","type":"Province","geonunit":"Turkey"},{"name":"Niğde","color":"#4db6ac","type":"Province","geonunit":"Turkey"},{"name":"Ordu","color":"#81c784","type":"Province","geonunit":"Turkey"},{"name":"Osmaniye","color":"#aed581","type":"Province","geonunit":"Turkey"},{"name":"Rize","color":"#dce775","type":"Province","geonunit":"Turkey"},{"name":"Sakarya","color":"#fff176","type":"Province","geonunit":"Turkey"},{"name":"Samsun","color":"#ffd54f","type":"Province","geonunit":"Turkey"},{"name":"Sanliurfa","color":"#ffb74d","type":"Province","geonunit":"Turkey"},{"name":"Siirt","color":"#ff8a65","type":"Province","geonunit":"Turkey"},{"name":"Sinope","color":"#a1887f","type":"Province","geonunit":"Turkey"},{"name":"Şırnak","color":"#90a4ae","type":"Province","geonunit":"Turkey"},{"name":"Sivas","color":"#f48fb1","type":"Province","geonunit":"Turkey"},{"name":"Tekirdağ","color":"#ce93d8","type":"Province","geonunit":"Turkey"},{"name":"Tokat","color":"#b39ddb","type":"Province","geonunit":"Turkey"},{"name":"Trabzon","color":"#9fa8da","type":"Province","geonunit":"Turkey"},{"name":"Tunceli","color":"#90caf9","type":"Province","geonunit":"Turkey"},{"name":"Uşak","color":"#81d4fa","type":"Province","geonunit":"Turkey"},{"name":"Van","color":"#80deea","type":"Province","geonunit":"Turkey"},{"name":"Yalova","color":"#80cbc4","type":"Province","geonunit":"Turkey"},{"name":"Yozgat","color":"#a5d6a7","type":"Province","geonunit":"Turkey"}],"hasBorder":true,"hasAdmin":true,"borderUrl":"assets/borders/tr.json","regionsUrl":"assets/admin1/tr.json","flagUrl":"https://flagcdn.com/w160/tr.png","flagUrl40":"https://flagcdn.com/w40/tr.png"}