{"key":"UnitedStates","es":"Estados Unidos","iso":"us","iso2":"US","center":[39.8,-98.5],"zoom":3,"capital":"Washington","capital_real":"Washington, D.C.","tiles":126,"tileNames":["Albuquerque","Allentown","Anchorage","Asheville","Ashland","Atlanta","Baltimore","Beckley","Benton","Billings","Biloxi","Birmingham","Bismarck","Boise","Boston","Boulder","Bowling Green","Bozeman","Buffalo","Burns","Cedar Rapids","Charleston","Cheyenne","Chicago","Cleveland","Columbus","Conway","Dallas","Denver","Des Moines","Destin","Detroit","Devils Lake","Dillingham","Dodge City","Erie","Exmore","Fairbanks","Fargo","Flagstaff","Gillette","Grand Junction","Grangeville","Great Falls","Green River","Greenville","Guymon","Holland","Honolulu","Indianapolis","Jackson","Joplin","Kansas City","Kearney","Kirksville","Knoxville","La Crosse","Lafayatte","Las Cruces","Las Vegas","Lexington","Lincoln","Los Angeles","Louisville","Marquette","Memphis","Miami","Midland","Milwaukee","Minneapolis","Moab","Mobile","Mobridge","Montgomery","Morgantown","Nashville","New Orleans","New York","Newport","Norfolk","Norman","North Platte","Oklahoma City","Olympia","Orlando","Oxford","Pendleton","Philadelphia","Phoenix","Pine Bluff","Pittsburgh","Pocatello","Portland","Quincy","Raleigh","Rapid City","Reno","Rochester","Romney","Roswell","Salt Lake City","San Antonio","San Diego","San Fransisco","Savannah","Seattle","Shreveport","Silver Bay","Sioux Center","Sioux Falls","South Bend","Spokane","Springfield","St. Louis","Starkville","Stowe","Toledo","Traverse City","Tucson","Valdosta","Vernal","Washington","Wichita","Williston","Winnemucca","Wise"],"region":"Americas","subregion":"Northern America","continent":"Américas","poblacion":340110988,"poblacion_fmt":"340.1M","pib_m":27360935,"pib_m_fmt":"27,360,935","pib_pc":80447,"pib_pc_fmt":"80,447","deuda_pct":"N/D","idh":"N/D","area_km2":9629091,"anio":"2025*","fuentes":["worldbank_pop_2024","worldbank_gdp_2023","apicountries"],"military":{"defense_pct_pib":3.7,"defense_m_usd":1012355,"troops_est":1360444,"power_index":6.43,"note":"Estimación educativa derivada de PIB/población/IDH — no es dato oficial"},"socio":{"life_expectancy":null,"literacy_pct":null,"gini_est":null,"co2_t_pc_est":144.8,"note":"Indicadores proxy educativos (no oficiales)"},"cities":[{"n":1,"name":"Albuquerque","lat":35.08449,"lon":-106.65114,"geoLabel":"Albuquerque"},{"n":2,"name":"Allentown","lat":40.60843,"lon":-75.49018,"geoLabel":"Allentown"},{"n":3,"name":"Anchorage","lat":61.21806,"lon":-149.90028,"geoLabel":"Anchorage"},{"n":4,"name":"Asheville","lat":35.60095,"lon":-82.55402,"geoLabel":"Asheville"},{"n":5,"name":"Ashland","lat":40.86867,"lon":-82.31822,"geoLabel":"Ashland"},{"n":6,"name":"Atlanta","lat":33.749,"lon":-84.38798,"geoLabel":"Atlanta"},{"n":7,"name":"Baltimore","lat":39.29038,"lon":-76.61219,"geoLabel":"Baltimore"},{"n":8,"name":"Beckley","lat":37.77817,"lon":-81.18816,"geoLabel":"Beckley"},{"n":9,"name":"Benton","lat":34.56454,"lon":-92.58683,"geoLabel":"Benton"},{"n":10,"name":"Billings","lat":45.78329,"lon":-108.50069,"geoLabel":"Billings Metropolitan Area"},{"n":11,"name":"Biloxi","lat":30.39603,"lon":-88.88531,"geoLabel":"Biloxi"},{"n":12,"name":"Birmingham","lat":52.48142,"lon":-1.89983,"geoLabel":"Birmingham"},{"n":13,"name":"Bismarck","lat":46.80833,"lon":-100.78374,"geoLabel":"Bismarck"},{"n":14,"name":"Boise","lat":43.6135,"lon":-116.20345,"geoLabel":"Boise"},{"n":15,"name":"Boston","lat":42.35843,"lon":-71.05977,"geoLabel":"Boston"},{"n":16,"name":"Boulder","lat":40.01499,"lon":-105.27055,"geoLabel":"Boulder"},{"n":17,"name":"Bowling Green","lat":36.99032,"lon":-86.4436,"geoLabel":"Bowling Green"},{"n":18,"name":"Bozeman","lat":45.67965,"lon":-111.03856,"geoLabel":"Bozeman"},{"n":19,"name":"Buffalo","lat":42.88645,"lon":-78.87837,"geoLabel":"Buffalo"},{"n":20,"name":"Burns","lat":43.58626,"lon":-119.0541,"geoLabel":"Burns"},{"n":21,"name":"Cedar Rapids","lat":42.00833,"lon":-91.64407,"geoLabel":"Cedar Rapids"},{"n":22,"name":"Charleston","lat":32.77632,"lon":-79.93275,"geoLabel":"Charleston"},{"n":23,"name":"Cheyenne","lat":41.13998,"lon":-104.82025,"geoLabel":"Cheyenne"},{"n":24,"name":"Chicago","lat":41.85003,"lon":-87.65005,"geoLabel":"Chicago"},{"n":25,"name":"Cleveland","lat":41.4995,"lon":-81.69541,"geoLabel":"Cleveland"},{"n":26,"name":"Columbus","lat":39.96118,"lon":-82.99879,"geoLabel":"Columbus"},{"n":27,"name":"Conway","lat":35.0887,"lon":-92.4421,"geoLabel":"Conway"},{"n":28,"name":"Dallas","lat":32.78306,"lon":-96.80667,"geoLabel":"Dallas"},{"n":29,"name":"Denver","lat":39.73915,"lon":-104.9847,"geoLabel":"Denver"},{"n":30,"name":"Des Moines","lat":41.60054,"lon":-93.60911,"geoLabel":"Des Moines"},{"n":31,"name":"Destin","lat":30.39353,"lon":-86.49578,"geoLabel":"Destin"},{"n":32,"name":"Detroit","lat":42.33143,"lon":-83.04575,"geoLabel":"Detroit"},{"n":33,"name":"Devils Lake","lat":48.11278,"lon":-98.86512,"geoLabel":"Devils Lake"},{"n":34,"name":"Dillingham","lat":59.03972,"lon":-158.4575,"geoLabel":"Dillingham"},{"n":35,"name":"Dodge City","lat":37.7528,"lon":-100.01708,"geoLabel":"Dodge City"},{"n":36,"name":"Erie","lat":42.12922,"lon":-80.08506,"geoLabel":"Erie"},{"n":37,"name":"Exmore","lat":37.5318,"lon":-75.82299,"geoLabel":"Exmore"},{"n":38,"name":"Fairbanks","lat":64.83778,"lon":-147.71638,"geoLabel":"Fairbanks"},{"n":39,"name":"Fargo","lat":46.87719,"lon":-96.7898,"geoLabel":"Fargo"},{"n":40,"name":"Flagstaff","lat":35.19807,"lon":-111.65127,"geoLabel":"Flagstaff"},{"n":41,"name":"Gillette","lat":44.29109,"lon":-105.50222,"geoLabel":"Gillette"},{"n":42,"name":"Grand Junction","lat":39.06387,"lon":-108.55065,"geoLabel":"Grand Junction"},{"n":43,"name":"Grangeville","lat":45.92655,"lon":-116.12237,"geoLabel":"Grangeville"},{"n":44,"name":"Great Falls","lat":47.50024,"lon":-111.30081,"geoLabel":"Great Falls"},{"n":45,"name":"Green River","lat":41.52858,"lon":-109.46625,"geoLabel":"Green River"},{"n":46,"name":"Greenville","lat":35.61266,"lon":-77.36635,"geoLabel":"Greenville"},{"n":47,"name":"Guymon","lat":36.6828,"lon":-101.48155,"geoLabel":"Guymon"},{"n":48,"name":"Holland","lat":52.25,"lon":5.75,"geoLabel":"The Netherlands"},{"n":49,"name":"Honolulu","lat":21.30694,"lon":-157.85834,"geoLabel":"Honolulu"},{"n":50,"name":"Indianapolis","lat":39.76838,"lon":-86.15804,"geoLabel":"Indianapolis"},{"n":51,"name":"Jackson","lat":32.29876,"lon":-90.18481,"geoLabel":"Jackson"},{"n":52,"name":"Joplin","lat":37.08423,"lon":-94.51328,"geoLabel":"Joplin"},{"n":53,"name":"Kansas City","lat":39.09973,"lon":-94.57857,"geoLabel":"Kansas City"},{"n":54,"name":"Kearney","lat":40.69946,"lon":-99.08148,"geoLabel":"Kearney"},{"n":55,"name":"Kirksville","lat":40.19475,"lon":-92.58325,"geoLabel":"Kirksville"},{"n":56,"name":"Knoxville","lat":35.96064,"lon":-83.92074,"geoLabel":"Knoxville"},{"n":57,"name":"La Crosse","lat":43.80136,"lon":-91.23958,"geoLabel":"La Crosse"},{"n":58,"name":"Lafayatte","lat":30.22409,"lon":-92.01984,"geoLabel":"Lafayette"},{"n":59,"name":"Las Cruces","lat":32.31232,"lon":-106.77834,"geoLabel":"Las Cruces"},{"n":60,"name":"Las Vegas","lat":36.17497,"lon":-115.13722,"geoLabel":"Las Vegas"},{"n":61,"name":"Lexington","lat":37.98869,"lon":-84.47772,"geoLabel":"Lexington"},{"n":62,"name":"Lincoln","lat":40.8,"lon":-96.66696,"geoLabel":"Lincoln"},{"n":63,"name":"Los Angeles","lat":34.05223,"lon":-118.24368,"geoLabel":"Los Angeles"},{"n":64,"name":"Louisville","lat":38.25424,"lon":-85.75941,"geoLabel":"Louisville"},{"n":65,"name":"Marquette","lat":46.54354,"lon":-87.39542,"geoLabel":"Marquette"},{"n":66,"name":"Memphis","lat":35.14953,"lon":-90.04898,"geoLabel":"Memphis"},{"n":67,"name":"Miami","lat":25.77427,"lon":-80.19366,"geoLabel":"Miami"},{"n":68,"name":"Midland","lat":31.99735,"lon":-102.07791,"geoLabel":"Midland"},{"n":69,"name":"Milwaukee","lat":43.0389,"lon":-87.90647,"geoLabel":"Milwaukee"},{"n":70,"name":"Minneapolis","lat":44.97997,"lon":-93.26384,"geoLabel":"Minneapolis"},{"n":71,"name":"Moab","lat":38.57332,"lon":-109.54984,"geoLabel":"Moab"},{"n":72,"name":"Mobile","lat":30.69436,"lon":-88.04305,"geoLabel":"Mobile"},{"n":73,"name":"Mobridge","lat":45.53722,"lon":-100.42791,"geoLabel":"Mobridge"},{"n":74,"name":"Montgomery","lat":32.36681,"lon":-86.29997,"geoLabel":"Montgomery"},{"n":75,"name":"Morgantown","lat":39.62953,"lon":-79.9559,"geoLabel":"Morgantown"},{"n":76,"name":"Nashville","lat":36.16589,"lon":-86.78444,"geoLabel":"Nashville"},{"n":77,"name":"New Orleans","lat":29.95465,"lon":-90.07507,"geoLabel":"New Orleans"},{"n":78,"name":"New York","lat":40.71427,"lon":-74.00597,"geoLabel":"New York"},{"n":79,"name":"Newport","lat":51.58774,"lon":-2.99835,"geoLabel":"Newport"},{"n":80,"name":"Norfolk","lat":36.84681,"lon":-76.28522,"geoLabel":"Norfolk"},{"n":81,"name":"Norman","lat":35.22257,"lon":-97.43948,"geoLabel":"Norman"},{"n":82,"name":"North Platte","lat":41.12389,"lon":-100.76542,"geoLabel":"North Platte"},{"n":83,"name":"Oklahoma City","lat":35.46756,"lon":-97.51643,"geoLabel":"Oklahoma City"},{"n":84,"name":"Olympia","lat":47.04491,"lon":-122.90169,"geoLabel":"Olympia"},{"n":85,"name":"Orlando","lat":28.53834,"lon":-81.37924,"geoLabel":"Orlando"},{"n":86,"name":"Oxford","lat":51.75222,"lon":-1.25596,"geoLabel":"Oxford"},{"n":87,"name":"Pendleton","lat":45.67207,"lon":-118.7886,"geoLabel":"Pendleton"},{"n":88,"name":"Philadelphia","lat":39.95238,"lon":-75.16362,"geoLabel":"Philadelphia"},{"n":89,"name":"Phoenix","lat":33.44838,"lon":-112.07404,"geoLabel":"Phoenix"},{"n":90,"name":"Pine Bluff","lat":34.22843,"lon":-92.0032,"geoLabel":"Pine Bluff"},{"n":91,"name":"Pittsburgh","lat":40.44062,"lon":-79.99589,"geoLabel":"Pittsburgh"},{"n":92,"name":"Pocatello","lat":42.8713,"lon":-112.44553,"geoLabel":"Pocatello"},{"n":93,"name":"Portland","lat":45.52345,"lon":-122.67621,"geoLabel":"Portland"},{"n":94,"name":"Quincy","lat":39.9356,"lon":-91.40987,"geoLabel":"Quincy"},{"n":95,"name":"Raleigh","lat":35.7721,"lon":-78.63861,"geoLabel":"Raleigh"},{"n":96,"name":"Rapid City","lat":44.08054,"lon":-103.23101,"geoLabel":"Rapid City"},{"n":97,"name":"Reno","lat":39.52963,"lon":-119.8138,"geoLabel":"Reno"},{"n":98,"name":"Rochester","lat":43.15478,"lon":-77.61556,"geoLabel":"Rochester"},{"n":99,"name":"Romney","lat":39.34204,"lon":-78.75668,"geoLabel":"Romney"},{"n":100,"name":"Roswell","lat":33.39437,"lon":-104.52491,"geoLabel":"Roswell"},{"n":101,"name":"Salt Lake City","lat":40.76078,"lon":-111.89105,"geoLabel":"Salt Lake City"},{"n":102,"name":"San Antonio","lat":29.42412,"lon":-98.49363,"geoLabel":"San Antonio"},{"n":103,"name":"San Diego","lat":32.71571,"lon":-117.16472,"geoLabel":"San Diego"},{"n":104,"name":"San Fransisco","lat":37.77493,"lon":-122.41942,"geoLabel":"San Francisco"},{"n":105,"name":"Savannah","lat":32.08354,"lon":-81.09983,"geoLabel":"Savannah"},{"n":106,"name":"Seattle","lat":47.60621,"lon":-122.33207,"geoLabel":"Seattle"},{"n":107,"name":"Shreveport","lat":32.52515,"lon":-93.75018,"geoLabel":"Shreveport"},{"n":108,"name":"Silver Bay","lat":47.29436,"lon":-91.25739,"geoLabel":"Silver Bay"},{"n":109,"name":"Sioux Center","lat":43.07971,"lon":-96.17558,"geoLabel":"Sioux Center"},{"n":110,"name":"Sioux Falls","lat":43.54369,"lon":-96.72796,"geoLabel":"Sioux Falls"},{"n":111,"name":"South Bend","lat":41.68338,"lon":-86.25001,"geoLabel":"South Bend"},{"n":112,"name":"Spokane","lat":47.65966,"lon":-117.42908,"geoLabel":"Spokane"},{"n":113,"name":"Springfield","lat":37.21533,"lon":-93.29824,"geoLabel":"Springfield"},{"n":114,"name":"St. Louis","lat":38.62727,"lon":-90.19789,"geoLabel":"St Louis"},{"n":115,"name":"Starkville","lat":33.45049,"lon":-88.81961,"geoLabel":"Starkville"},{"n":116,"name":"Stowe","lat":41.1595,"lon":-81.44039,"geoLabel":"Stow"},{"n":117,"name":"Toledo","lat":41.66394,"lon":-83.55521,"geoLabel":"Toledo"},{"n":118,"name":"Traverse City","lat":44.76306,"lon":-85.62063,"geoLabel":"Traverse City"},{"n":119,"name":"Tucson","lat":32.22174,"lon":-110.92648,"geoLabel":"Tucson"},{"n":120,"name":"Valdosta","lat":30.83334,"lon":-83.28032,"geoLabel":"Valdosta"},{"n":121,"name":"Vernal","lat":40.45552,"lon":-109.52875,"geoLabel":"Vernal"},{"n":122,"name":"Washington","capital":true,"lat":38.89511,"lon":-77.03637,"geoLabel":"Washington D.C."},{"n":123,"name":"Wichita","lat":37.69224,"lon":-97.33754,"geoLabel":"Wichita"},{"n":124,"name":"Williston","lat":48.14697,"lon":-103.61797,"geoLabel":"Williston"},{"n":125,"name":"Winnemucca","lat":40.97296,"lon":-117.73568,"geoLabel":"Winnemucca"},{"n":126,"name":"Wise","lat":36.97593,"lon":-82.57571,"geoLabel":"Wise"}],"regions":[{"name":"Alabama","color":"#1565c0","type":"State","geonunit":"United States of America"},{"name":"Alaska","color":"#c62828","type":"State","geonunit":"United States of America"},{"name":"Arizona","color":"#6a1b9a","type":"State","geonunit":"United States of America"},{"name":"Arkansas","color":"#2e7d32","type":"State","geonunit":"United States of America"},{"name":"California","color":"#ef6c00","type":"State","geonunit":"United States of America"},{"name":"Colorado","color":"#00838f","type":"State","geonunit":"United States of America"},{"name":"Connecticut","color":"#4527a0","type":"State","geonunit":"United States of America"},{"name":"Delaware","color":"#ad1457","type":"State","geonunit":"United States of America"},{"name":"Washington D. C.","color":"#558b2f","type":"Federal District","geonunit":"United States of America"},{"name":"Florida","color":"#00695c","type":"State","geonunit":"United States of America"},{"name":"Georgia","color":"#283593","type":"State","geonunit":"United States of America"},{"name":"Hawái","color":"#b71c1c","type":"State","geonunit":"United States of America"},{"name":"Idaho","color":"#f9a825","type":"State","geonunit":"United States of America"},{"name":"Illinois","color":"#0277bd","type":"State","geonunit":"United States of America"},{"name":"Indiana","color":"#6d4c41","type":"State","geonunit":"United States of America"},{"name":"Iowa","color":"#c2185b","type":"State","geonunit":"United States of America"},{"name":"Kansas","color":"#00796b","type":"State","geonunit":"United States of America"},{"name":"Kentucky","color":"#303f9f","type":"State","geonunit":"United States of America"},{"name":"Luisiana","color":"#d84315","type":"State","geonunit":"United States of America"},{"name":"Maine","color":"#7b1fa2","type":"State","geonunit":"United States of America"},{"name":"Maryland","color":"#33691e","type":"State","geonunit":"United States of America"},{"name":"Massachusetts","color":"#01579b","type":"State","geonunit":"United States of America"},{"name":"Míchigan","color":"#e65100","type":"State","geonunit":"United States of America"},{"name":"Minnesota","color":"#4a148c","type":"State","geonunit":"United States of America"},{"name":"Misisipi","color":"#1b5e20","type":"State","geonunit":"United States of America"},{"name":"Misuri","color":"#0d47a1","type":"State","geonunit":"United States of America"},{"name":"Montana","color":"#bf360c","type":"State","geonunit":"United States of America"},{"name":"Nebraska","color":"#880e4f","type":"State","geonunit":"United States of America"},{"name":"Nevada","color":"#004d40","type":"State","geonunit":"United States of America"},{"name":"Nuevo Hampshire","color":"#311b92","type":"State","geonunit":"United States of America"},{"name":"Nueva Jersey","color":"#827717","type":"State","geonunit":"United States of America"},{"name":"Nuevo México","color":"#3e2723","type":"State","geonunit":"United States of America"},{"name":"Nueva York","color":"#ff6f00","type":"State","geonunit":"United States of America"},{"name":"Carolina del Norte","color":"#1a237e","type":"State","geonunit":"United States of America"},{"name":"Dakota del Norte","color":"#b71c1c","type":"State","geonunit":"United States of America"},{"name":"Ohio","color":"#006064","type":"State","geonunit":"United States of America"},{"name":"Oklahoma","color":"#4a148c","type":"State","geonunit":"United States of America"},{"name":"Oregón","color":"#33691e","type":"State","geonunit":"United States of America"},{"name":"Pensilvania","color":"#e65100","type":"State","geonunit":"United States of America"},{"name":"Rhode Island","color":"#0d47a1","type":"State","geonunit":"United States of America"},{"name":"Carolina del Sur","color":"#880e4f","type":"State","geonunit":"United States of America"},{"name":"Dakota del Sur","color":"#1b5e20","type":"State","geonunit":"United States of America"},{"name":"Tennessee","color":"#bf360c","type":"State","geonunit":"United States of America"},{"name":"Texas","color":"#4a148c","type":"State","geonunit":"United States of America"},{"name":"Utah","color":"#01579b","type":"State","geonunit":"United States of America"},{"name":"Vermont","color":"#33691e","type":"State","geonunit":"United States of America"},{"name":"Virginia","color":"#c62828","type":"State","geonunit":"United States of America"},{"name":"Washington","color":"#6a1b9a","type":"State","geonunit":"United States of America"},{"name":"Virginia Occidental","color":"#2e7d32","type":"State","geonunit":"United States of America"},{"name":"Wisconsin","color":"#ef6c00","type":"State","geonunit":"United States of America"},{"name":"Wyoming","color":"#00838f","type":"State","geonunit":"United States of America"}],"hasBorder":true,"hasAdmin":true,"borderUrl":"assets/borders/us.json","regionsUrl":"assets/admin1/us.json","flagUrl":"https://flagcdn.com/w160/us.png","flagUrl40":"https://flagcdn.com/w40/us.png"}