{"key":"Uzbekistan","es":"Uzbekistán","iso":"uz","iso2":"UZ","center":[41.4,64.6],"zoom":5,"capital":"Tashkent","capital_real":"Tashkent","tiles":24,"tileNames":["Ayakkuduk","Baskara","Beleuli","Beruniy","Buzaubay","Daugyztau","Daukara","Jasliq","Jizzakh","Kalaata","Kantubek","Karakalpakia","Koneboget","Kyrkkyz","Moynaq","Namangan","Navoi","Nukus","Qonirat","Quarshi","Tasbeskum","Tashkent","Uchkuduk","Urgench"],"region":"Asia","subregion":"Central Asia","continent":"Asia","poblacion":36361859,"poblacion_fmt":"36.4M","pib_m":90889,"pib_m_fmt":"90,889","pib_pc":2500,"pib_pc_fmt":"2,500","deuda_pct":"N/D","idh":"N/D","area_km2":447400,"anio":"2025*","fuentes":["worldbank_pop_2024","worldbank_gdp_2023","apicountries"],"military":{"defense_pct_pib":1.4,"defense_m_usd":1261,"troops_est":145447,"power_index":5.03,"note":"Estimación educativa derivada de PIB/población/IDH — no es dato oficial"},"socio":{"life_expectancy":null,"literacy_pct":null,"gini_est":null,"co2_t_pc_est":4.5,"note":"Indicadores proxy educativos (no oficiales)"},"cities":[{"n":1,"name":"Ayakkuduk","lat":41.2006896,"lon":65.2015922,"geoLabel":"Oyoqquduq"},{"n":2,"name":"Baskara","capital":null},{"n":3,"name":"Beleuli","lat":44.05425,"lon":57.54815,"geoLabel":"Beleuli North"},{"n":4,"name":"Beruniy","lat":41.69111,"lon":60.7525,"geoLabel":"Beruniy"},{"n":5,"name":"Buzaubay","lat":41.752967,"lon":62.456379,"geoLabel":"Bo‘zovboy"},{"n":6,"name":"Daugyztau","lat":41.2331555,"lon":64.2333633,"geoLabel":"дор. Даугызтау"},{"n":7,"name":"Daukara","lat":45.86667,"lon":59.5,"geoLabel":"Daukara"},{"n":8,"name":"Jasliq","lat":43.94765,"lon":57.48452,"geoLabel":"Jasliq"},{"n":9,"name":"Jizzakh","lat":40.13351,"lon":67.82956,"geoLabel":"Jizzakh"},{"n":10,"name":"Kalaata","capital":null},{"n":11,"name":"Kantubek","lat":45.1538531,"lon":59.3353468,"geoLabel":"Кантубек (Аральск-7)"},{"n":12,"name":"Karakalpakia","lat":43.7738841,"lon":57.6234617,"geoLabel":"Qaraqalpaqstan Respublikası"},{"n":13,"name":"Koneboget","lat":43.13333,"lon":60.76667,"geoLabel":"Koneboget"},{"n":14,"name":"Kyrkkyz","lat":43.1539992,"lon":58.2154365,"geoLabel":"Qırqqız"},{"n":15,"name":"Moynaq","lat":43.7643276,"lon":59.0297467,"geoLabel":"Moynaq"},{"n":16,"name":"Namangan","lat":40.9983,"lon":71.67257,"geoLabel":"Namangan"},{"n":17,"name":"Navoi","lat":41.21056,"lon":68.995,"geoLabel":"Navoi"},{"n":18,"name":"Nukus","lat":42.45861,"lon":59.60576,"geoLabel":"Nukus"},{"n":19,"name":"Qonirat","lat":43.0457254,"lon":58.8475388,"geoLabel":"Qońırat"},{"n":20,"name":"Quarshi","lat":38.86056,"lon":65.78905,"geoLabel":"Qarshi"},{"n":21,"name":"Tasbeskum","lat":43.6006571,"lon":60.2851694,"geoLabel":"урочище Тасбескум"},{"n":22,"name":"Tashkent","capital":true,"lat":41.26465,"lon":69.21627,"geoLabel":"Tashkent"},{"n":23,"name":"Uchkuduk","lat":41.05,"lon":62.78333,"geoLabel":"Uchkuduk"},{"n":24,"name":"Urgench","lat":41.55177,"lon":60.63143,"geoLabel":"Urgench"}],"regions":[{"name":"Andillán","color":"#e57373","type":"Region","geonunit":"Uzbekistan"},{"name":"Bujara","color":"#f06292","type":"Region","geonunit":"Uzbekistan"},{"name":"Fergana","color":"#ba68c8","type":"Region","geonunit":"Uzbekistan"},{"name":"Djizaks","color":"#9575cd","type":"Region","geonunit":"Uzbekistan"},{"name":"Karakalpakia","color":"#7986cb","type":"Automonous Region","geonunit":"Uzbekistan"},{"name":"Kashkadar","color":"#64b5f6","type":"Region","geonunit":"Uzbekistan"},{"name":"Corasmia","color":"#4fc3f7","type":"Region","geonunit":"Uzbekistan"},{"name":"Namangán","color":"#4dd0e1","type":"Region","geonunit":"Uzbekistan"},{"name":"Navoi","color":"#4db6ac","type":"Region","geonunit":"Uzbekistan"},{"name":"Samarcanda","color":"#81c784","type":"Region","geonunit":"Uzbekistan"},{"name":"Sirdarín","color":"#aed581","type":"Region","geonunit":"Uzbekistan"},{"name":"Surjandarín","color":"#dce775","type":"Region","geonunit":"Uzbekistan"},{"name":"Taskent","color":"#fff176","type":"Region","geonunit":"Uzbekistan"},{"name":"Taskent","color":"#ffd54f","type":"Region","geonunit":"Uzbekistan"}],"hasBorder":true,"hasAdmin":true,"borderUrl":"assets/borders/uz.json","regionsUrl":"assets/admin1/uz.json","flagUrl":"https://flagcdn.com/w160/uz.png","flagUrl40":"https://flagcdn.com/w40/uz.png"}